{"version": 0.6, "generator": "Overpass API 0.7.62.11 87bfad18", "osm3s": {"timestamp_osm_base": "2026-05-28T08:45:42Z", "copyright": "The data included in this document is from www.openstreetmap.org. The data is made available under ODbL."}, "elements": [{"type": "node", "id": 368634111, "lat": 35.228059, "lon": 129.089908, "tags": {"amenity": "cinema", "name": "\ub86f\ub370\uc2dc\ub124\ub9c8 \uc624\ud22c\ubd80\uc0b0\ub300\uc810", "name:en": "Lotte Cinema Otu", "name:ko": "\ub86f\ub370\uc2dc\ub124\ub9c8 \uc624\ud22c\uc810"}}, {"type": "node", "id": 368640457, "lat": 35.225794, "lon": 129.09213, "tags": {"amenity": "bank", "atm": "yes", "name": "\uae08\uc815\ub18d\ud611", "name:en": "Geumjeong Nonghyup", "name:ko": "\uae08\uc815\ub18d\ud611", "name:ko-Latn": "Geumjeongnonghyeop"}}, {"type": "node", "id": 368743276, "lat": 35.23903, "lon": 129.09078, "tags": {"amenity": "dentist", "name": "\uc774\ub8e8\ubbf8\uce58\uacfc", "name:en": "Irumi Dental Clinic", "name:ja": "\u30a4\u30eb\u30df\u6b6f\u79d1", "name:ko": "\uc774\ub8e8\ubbf8\uce58\uacfc", "name:ko-Latn": "Irumichigwa"}}, {"type": "node", "id": 368743488, "lat": 35.2381439, "lon": 129.0920187, "tags": {"amenity": "hospital", "healthcare": "hospital", "name": "BHS\ub3d9\ub798\ud55c\uc11c\uc694\uc591\ubcd1\uc6d0", "name:en": "BHS Dongnae Hanseo Convalescent Hospital", "name:ko": "BHS\ub3d9\ub798\ud55c\uc11c\uc694\uc591\ubcd1\uc6d0", "name:ko-Latn": "BHS Dongnae Hanseo Yoyangbyeongwon"}}, {"type": "node", "id": 368743547, "lat": 35.23077, "lon": 129.0868, "tags": {"amenity": "dentist", "name": "\uc62c\ub9ac\ube0c\uce58\uacfc", "name:en": "Olive Dental Clinic", "name:ko": "\uc62c\ub9ac\ube0c\uce58\uacfc", "name:ko-Latn": "Ollibeuchigwa"}}, {"type": "node", "id": 368743599, "lat": 35.2376586, "lon": 129.0902109, "tags": {"amenity": "hospital", "healthcare": "hospital", "name": "\ub2f9\ub2f9\ud55c\uc758\uc6d0", "name:en": "Dangdang Oriental Medicine Clinic", "name:ko": "\ub2f9\ub2f9\ud55c\uc758\uc6d0", "name:ko-Latn": "Dangdanghanuiwon"}}, {"type": "node", "id": 368744016, "lat": 35.22614, "lon": 129.09214, "tags": {"amenity": "dentist", "name": "\ud478\ub978\uc0ac\uacfc\uce58\uacfc\uc758\uc6d0", "name:en": "Pureun Apple Dental Clinic", "name:ko": "\ud478\ub978\uc0ac\uacfc\uce58\uacfc\uc758\uc6d0", "name:ko-Latn": "Pureunsagwachigwauiwon"}}, {"type": "node", "id": 368744094, "lat": 35.225587, "lon": 129.092116, "tags": {"amenity": "hospital", "name": "\ubcf8\ub514\uc62c\uae08\uc815\ud55c\uc758\uc6d0", "name:en": "Bondiolgeumjeong Oriental Medicine Clinic", "name:ko": "\ubcf8\ub514\uc62c\uae08\uc815\ud55c\uc758\uc6d0", "name:ko-Latn": "Bondiolgeumjeonghanuiwon"}}, {"type": "node", "id": 368744128, "lat": 35.23764, "lon": 129.08907, "tags": {"amenity": "hospital", "name": "\ube44\uc5d0\uc2a4\ubc43\uc0b4\ubc29 \ubd80\uace1\uc810", "name:en": "Bieseubaetsalbang Bugokjeom", "name:ko": "\ube44\uc5d0\uc2a4\ubc43\uc0b4\ubc29 \ubd80\uace1\uc810", "name:ko-Latn": "Bieseubaetsalbang Bugokjeom"}}, {"type": "node", "id": 368744129, "lat": 35.230757, "lon": 129.0887914, "tags": {"amenity": "hospital", "name": "\uc9c0\ub2c8\uc0b0\ubd80\uc778\uacfc\uc758\uc6d0", "name:en": "Jini Obstetrics & Gynecology Clinic", "name:ja": "\u30b8\u30cb\u7523\u5a66\u4eba\u79d1\u533b\u9662", "name:ko": "\uc9c0\ub2c8\uc0b0\ubd80\uc778\uacfc\uc758\uc6d0", "name:ko-Latn": "Jinisanbuingwauiwon"}}, {"type": "node", "id": 368744561, "lat": 35.224742, "lon": 129.091885, "tags": {"amenity": "hospital", "name": "\ud6a8\ub2f9\ud55c\uc758\uc6d0", "name:en": "Hyodang Oriental Medicine Clinic", "name:ko": "\ud6a8\ub2f9\ud55c\uc758\uc6d0", "name:ko-Latn": "Hyodanghanuiwon"}}, {"type": "node", "id": 368744810, "lat": 35.2374119, "lon": 129.0919125, "tags": {"amenity": "dentist", "name": "\ucc28\uce58\uacfc\uc758\uc6d0", "name:en": "Cha Dental Clinic", "name:ko": "\ucc28\uce58\uacfc\uc758\uc6d0", "name:ko-Latn": "Chachigwauiwon"}}, {"type": "node", "id": 368744911, "lat": 35.224323, "lon": 129.082267, "tags": {"amenity": "hospital", "name": "\uc870\uc0dd\ud55c\uc758\uc6d0", "name:en": "Josaeng Oriental Medicine Clinic", "name:ko": "\uc870\uc0dd\ud55c\uc758\uc6d0", "name:ko-Latn": "Josaenghanuiwon"}}, {"type": "node", "id": 368745185, "lat": 35.231019, "lon": 129.077511, "tags": {"amenity": "hospital", "name": "\uc138\uba85\uc815\uc2e0\ubcd1\uc6d0", "name:en": "Semyeongjeongsin Hospital", "name:ko": "\uc138\uba85\uc815\uc2e0\ubcd1\uc6d0", "name:ko-Latn": "Semyeongjeongsinbyeongwon"}}, {"type": "node", "id": 368746844, "lat": 35.225434, "lon": 129.092048, "tags": {"amenity": "hospital", "name": "\ud558\ub098\uc758\uc6d0", "name:en": "Hana Clinic", "name:ko": "\ud558\ub098\uc758\uc6d0", "name:ko-Latn": "Hanauiwon"}}, {"type": "node", "id": 368747320, "lat": 35.23818, "lon": 129.09216, "tags": {"amenity": "dentist", "name": "\uad7f\ubaa8\ub2dd\uce58\uacfc", "name:en": "Good Morning Dental Clinic", "name:ja": "\u30b0\u30c3\u30c9\u30e2\u30fc\u30cb\u30f3\u30b0\u6b6f\u79d1", "name:ko": "\uad7f\ubaa8\ub2dd\uce58\uacfc", "name:ko-Latn": "Gutmoningchigwa"}}, {"type": "node", "id": 368747678, "lat": 35.239082, "lon": 129.091056, "tags": {"amenity": "hospital", "name": "\uae40\uc885\uc6d0\ud1b5\uc99d\uc758\ud559\uacfc", "name:en": "Gimjongwontongjeunguihakgwa", "name:ko": "\uae40\uc885\uc6d0\ud1b5\uc99d\uc758\ud559\uacfc", "name:ko-Latn": "Gimjongwontongjeunguihakgwa"}}, {"type": "node", "id": 368747716, "lat": 35.2391, "lon": 129.09083, "tags": {"amenity": "dentist", "name": "\uc78e\uc0c8\uce58\uacfc", "name:en": "Ipsae Dental Clinic", "name:ko": "\uc78e\uc0c8\uce58\uacfc", "name:ko-Latn": "Ipsaechigwa"}}, {"type": "node", "id": 368747730, "lat": 35.22592, "lon": 129.09222, "tags": {"amenity": "dentist", "name": "\ud589\ubcf5\ud55c\uce58\uacfc\uc758\uc6d0", "name:en": "Haengbokhan Dental Clinic", "name:ko": "\ud589\ubcf5\ud55c\uce58\uacfc\uc758\uc6d0", "name:ko-Latn": "Haengbokhanchigwauiwon"}}, {"type": "node", "id": 368864714, "lat": 35.238108, "lon": 129.087186, "tags": {"amenity": "place_of_worship", "denomination": "catholic", "name": "\ucc9c\uc8fc\uad50\ubd80\uc0b0\uad50\uad6c\uae08\uc815\uc131\ub2f9", "name:en": "Geumjeong Catholic Church", "name:ja": "\u30ab\u30c8\u30ea\u30c3\u30af\u91dc\u5c71\u6559\u533a\u91d1\u4e95\u8056\u5802", "name:ko": "\ucc9c\uc8fc\uad50\ubd80\uc0b0\uad50\uad6c\uae08\uc815\uc131\ub2f9", "name:ko-Latn": "Cheonjugyobusangyogugeumjeongseongdang", "religion": "christian", "wheelchair": "yes"}}, {"type": "node", "id": 368872009, "lat": 35.238111, "lon": 129.087779, "tags": {"amenity": "research_institute", "name": "BRM\uc5f0\uad6c\uc18c", "name:en": "BRM Research Institute", "name:ja": "BRM\u7814\u7a76\u6240", "name:ko": "BRM\uc5f0\uad6c\uc18c", "name:ko-Latn": "BRM Yeonguso"}}, {"type": "node", "id": 368876336, "lat": 35.223432, "lon": 129.083156, "tags": {"amenity": "post_office", "name": "\uc7a5\uc8043\ub3d9\uc6b0\uccb4\uad6d", "name:en": "Jangjeon 3 Dong Post Office", "name:ko": "\uc7a5\uc8043\ub3d9\uc6b0\uccb4\uad6d", "name:ko-Latn": "Jangjeon 3 Dongucheguk"}}, {"type": "node", "id": 368876614, "lat": 35.2288651, "lon": 129.0920197, "tags": {"amenity": "post_office", "name": "\ubd80\uace12\ub3d9 \uc6b0\ud3b8\ucde8\uae09\uad6d", "name:en": "Bugok 2 Dong Postal Agency", "name:ko": "\ubd80\uace12\ub3d9 \uc6b0\ud3b8\ucde8\uae09\uad6d", "name:ko-Latn": "Bugok 2 Dongupyeonchwigeupguk"}}, {"type": "node", "id": 368876666, "lat": 35.2358029, "lon": 129.0900353, "tags": {"amenity": "post_office", "name": "\ubd80\uace13\ub3d9\uc6b0\ud3b8\ucde8\uae09\uad6d", "name:en": "Bugok 3 Dong Postal Agency", "name:ko": "\ubd80\uace13\ub3d9\uc6b0\ud3b8\ucde8\uae09\uad6d", "name:ko-Latn": "Bugok 3 Dongupyeonchwigeupguk"}}, {"type": "node", "id": 368883682, "lat": 35.2269228, "lon": 129.0845968, "tags": {"amenity": "kindergarten", "name": "\uae08\uc815\ucd08\ub4f1\ud559\uad50\ubcd1\uc124\uc720\uce58\uc6d0", "name:en": "Geumjeong Elementary School Kindergarten", "name:ko": "\uae08\uc815\ucd08\ub4f1\ud559\uad50\ubcd1\uc124\uc720\uce58\uc6d0", "name:ko-Latn": "Geumjeongchodeunghakgyobyeongseolyuchiwon"}}, {"type": "node", "id": 368883825, "lat": 35.226443, "lon": 129.096138, "tags": {"amenity": "kindergarten", "name": "\ubd80\uace1\uc720\uce58\uc6d0", "name:en": "Bugok Kindergarten", "name:ko": "\ubd80\uace1\uc720\uce58\uc6d0", "name:ko-Latn": "Bugokyuchiwon"}}, {"type": "node", "id": 368883876, "lat": 35.2332991, "lon": 129.0900264, "tags": {"amenity": "kindergarten", "name": "\ub300\uc6b0\uc720\uce58\uc6d0", "name:en": "Daeu Kindergarten", "name:ko": "\ub300\uc6b0\uc720\uce58\uc6d0", "name:ko-Latn": "Daeuyuchiwon"}}, {"type": "node", "id": 368884187, "lat": 35.229714, "lon": 129.076197, "tags": {"amenity": "kindergarten", "name": "\uad11\uba85\uc720\uce58\uc6d0", "name:en": "Gwangmyeong Kindergarten", "name:ko": "\uad11\uba85\uc720\uce58\uc6d0", "name:ko-Latn": "Gwangmyeongyuchiwon"}}, {"type": "node", "id": 368884244, "lat": 35.2358226, "lon": 129.0899387, "tags": {"amenity": "kindergarten", "name": "\ud55c\uc2e0\uc720\uce58\uc6d0", "name:en": "Hansin Kindergarten", "name:ko": "\ud55c\uc2e0\uc720\uce58\uc6d0", "name:ko-Latn": "Hansinyuchiwon"}}, {"type": "node", "id": 368884325, "lat": 35.2358992, "lon": 129.0931134, "tags": {"amenity": "kindergarten", "name": "\ud55c\ub3c5\uc720\uce58\uc6d0", "name:en": "Handok Kindergarten", "name:ko": "\ud55c\ub3c5\uc720\uce58\uc6d0", "name:ko-Latn": "Handokyuchiwon"}}, {"type": "node", "id": 368884454, "lat": 35.227936, "lon": 129.077448, "tags": {"amenity": "kindergarten", "name": "\uafc8\ub098\ubb34\uc720\uce58\uc6d0", "name:en": "Ggumnamu Kindergarten", "name:ko": "\uafc8\ub098\ubb34\uc720\uce58\uc6d0", "name:ko-Latn": "Ggumnamuyuchiwon"}}, {"type": "node", "id": 368884663, "lat": 35.2400909, "lon": 129.0918445, "tags": {"amenity": "kindergarten", "name": "\uae08\uc591\ubbf8\ub798\uc720\uce58\uc6d0", "name:en": "Geumyangmirae Kindergarten", "name:ko": "\uae08\uc591\ubbf8\ub798\uc720\uce58\uc6d0", "name:ko-Latn": "Geumyangmiraeyuchiwon"}}, {"type": "node", "id": 368894262, "lat": 35.2234291, "lon": 129.0908664, "tags": {"amenity": "bank", "atm": "yes", "name": "\uc6b0\ub9ac\uc740\ud589", "name:en": "Uri Bank", "name:ko": "\uc6b0\ub9ac\uc740\ud589", "name:ko-Latn": "Urieunhaeng"}}, {"type": "node", "id": 368894328, "lat": 35.2285646, "lon": 129.0858643, "tags": {"amenity": "bank", "atm": "yes", "name": "\uc2e0\ud55c\uc740\ud589", "name:en": "Sinhan Bank", "name:ko": "\uc2e0\ud55c\uc740\ud589", "name:ko-Latn": "Sinhaneunhaeng"}}, {"type": "node", "id": 368894402, "lat": 35.2323655, "lon": 129.0836261, "tags": {"amenity": "bank", "atm": "yes", "name": "\ud558\ub098\uc740\ud589", "name:en": "Hana Bank", "name:ja": "\u30cf\u30ca\u9280\u884c", "name:ko": "\ud558\ub098\uc740\ud589", "name:ko-Latn": "Hanaeunhaeng"}}, {"type": "node", "id": 368900597, "lat": 35.2405111, "lon": 129.093828, "tags": {"addr:city": "\ubd80\uc0b0\uad11\uc5ed\uc2dc", "addr:district": "\uae08\uc815\uad6c", "addr:housenumber": "107", "addr:postcode": "46266", "addr:street": "\uae30\ucc30\ub85c", "addr:subdistrict": "\ubd80\uace1\ub3d9", "amenity": "townhall", "government": "administrative", "name": "\ubd80\uace13\ub3d9 \ud589\uc815\ubcf5\uc9c0\uc13c\ud130", "name:en": "Bugok 3 Dong Community Service Center", "name:ko": "\ubd80\uace13\ub3d9 \ud589\uc815\ubcf5\uc9c0\uc13c\ud130", "name:ko-Latn": "Bugok 3 Dongjuminsenteo", "office": "government", "website": "http://www.geumjeong.go.kr/dong/index.geumj?menuCd=DOM_000001007000000000"}}, {"type": "node", "id": 368900601, "lat": 35.2244427, "lon": 129.0921239, "tags": {"addr:city": "\ubd80\uc0b0\uad11\uc5ed\uc2dc", "addr:district": "\uae08\uc815\uad6c", "addr:housenumber": "29", "addr:postcode": "46305", "addr:street": "\ub3d9\ubd80\uace1\ub85c6\ubc88\uae38", "addr:subdistrict": "\ubd80\uace1\ub3d9", "amenity": "townhall", "government": "administrative", "name": "\ubd80\uace11\ub3d9 \ud589\uc815\ubcf5\uc9c0\uc13c\ud130", "name:en": "Bugok 1 Dong Community Service Center", "name:ko": "\ubd80\uace11\ub3d9 \ud589\uc815\ubcf5\uc9c0\uc13c\ud130", "name:ko-Latn": "Bugok 1 Dongjuminsenteo", "office": "government", "website": "http://www.geumjeong.go.kr/dong/index.geumj?menuCd=DOM_000001005000000000"}}, {"type": "node", "id": 368905847, "lat": 35.2242418, "lon": 129.0858237, "tags": {"amenity": "fuel", "fuel:diesel": "yes", "fuel:gasoline": "yes", "name": "GS \uce7c\ud14d\uc2a4", "name:en": "GS Gas Station", "self_service": "no"}}, {"type": "node", "id": 368906227, "lat": 35.2359906, "lon": 129.0924537, "tags": {"amenity": "fuel", "name": "\uc2e0\ucc3d\uc8fc\uc720\uc18c", "name:en": "Sinchang Gas Station", "name:ko": "\uc2e0\ucc3d\uc8fc\uc720\uc18c", "name:ko-Latn": "Sinchangjuyuso"}}, {"type": "node", "id": 368906850, "lat": 35.238524, "lon": 129.093015, "tags": {"amenity": "fuel", "name": "\uace0\uc18d\ub3c4\uc8fc\uc720\uc18c", "name:en": "Gosokdo Gas Station", "name:ko": "\uace0\uc18d\ub3c4\uc8fc\uc720\uc18c", "name:ko-Latn": "Gosokdojuyuso"}}, {"type": "node", "id": 368906855, "lat": 35.2337061, "lon": 129.0920801, "tags": {"amenity": "fuel", "name": "\uac70\ubd81\uc774\uc8fc\uc720\uc18c", "name:en": "Geobuki Gas Station", "name:ko": "\uac70\ubd81\uc774\uc8fc\uc720\uc18c", "name:ko-Latn": "Geobukijuyuso"}}, {"type": "node", "id": 368907320, "lat": 35.231061, "lon": 129.091915, "tags": {"amenity": "fuel", "name": "\ud604\ub300\uc624\uc77c\ubc45\ud06c\ud55c\uae38\uc8fc\uc720\uc18c", "name:en": "Hangil Gas Station", "name:ko": "\ud604\ub300\uc624\uc77c\ubc45\ud06c\ud55c\uae38\uc8fc\uc720\uc18c", "name:ko-Latn": "Hyeondaeoilbaengkeuhangiljuyuso"}}, {"type": "node", "id": 368907378, "lat": 35.227124, "lon": 129.089599, "tags": {"amenity": "fuel", "name": "\ud604\ub300\uc624\uc77c\ubc45\ud06c\ubd80\uace1\ubd80\uc0b0\uc8fc\uc720\uc18c", "name:en": "Bugokbusan Gas Station", "name:ko": "\ud604\ub300\uc624\uc77c\ubc45\ud06c\ubd80\uace1\ubd80\uc0b0\uc8fc\uc720\uc18c", "name:ko-Latn": "Hyeondaeoilbaengkeubugokbusanjuyuso"}}, {"type": "node", "id": 368907388, "lat": 35.232816, "lon": 129.092235, "tags": {"amenity": "fuel", "name": "\ud604\ub300\uc624\uc77c\ubc45\ud06c\uae08\uc815\ud604\ub300\uc8fc\uc720\uc18c", "name:en": "Geumjeonghyeondae Gas Station", "name:ko": "\ud604\ub300\uc624\uc77c\ubc45\ud06c\uae08\uc815\ud604\ub300\uc8fc\uc720\uc18c", "name:ko-Latn": "Hyeondaeoilbaengkeugeumjeonghyeondaejuyuso"}}, {"type": "node", "id": 368957263, "lat": 35.2297585, "lon": 129.0840466, "tags": {"amenity": "restaurant", "name": "\uccad\ud574\ud69f\uc9d1", "name:en": "Cheonghae Fish Restaurant", "name:ko": "\uccad\ud574\ud69f\uc9d1", "name:ko-Latn": "Cheonghaehoetjip"}}, {"type": "node", "id": 368957366, "lat": 35.223913, "lon": 129.093742, "tags": {"amenity": "restaurant", "name": "\uc804\uc6d0\ud69f\uc9d1", "name:en": "Jeonwon Fish Restaurant", "name:ko": "\uc804\uc6d0\ud69f\uc9d1", "name:ko-Latn": "Jeonwonhoetjip"}}, {"type": "node", "id": 368957571, "lat": 35.238996, "lon": 129.086692, "tags": {"amenity": "restaurant", "name": "\ub300\uc131\ud69f\uc9d1", "name:en": "Daeseong Fish Restaurant", "name:ko": "\ub300\uc131\ud69f\uc9d1", "name:ko-Latn": "Daeseonghoetjip"}}, {"type": "node", "id": 368957804, "lat": 35.224259, "lon": 129.08944, "tags": {"amenity": "restaurant", "name": "\ub3d9\uc6d0\ud69f\uc9d1", "name:en": "Dongwon Fish Restaurant", "name:ko": "\ub3d9\uc6d0\ud69f\uc9d1", "name:ko-Latn": "Dongwonhoetjip"}}, {"type": "node", "id": 368958995, "lat": 35.225365, "lon": 129.092674, "tags": {"amenity": "restaurant", "name": "\ubd80\uace1\ud69f\uc9d1", "name:en": "Bugok Fish Restaurant", "name:ko": "\ubd80\uace1\ud69f\uc9d1", "name:ko-Latn": "Bugokhoetjip"}}, {"type": "node", "id": 368959096, "lat": 35.228397, "lon": 129.092429, "tags": {"amenity": "restaurant", "name": "\uc9c4\uc8fc\ud69f\uc9d1", "name:en": "Jinju Fish Restaurant", "name:ko": "\uc9c4\uc8fc\ud69f\uc9d1", "name:ko-Latn": "Jinjuhoetjip"}}, {"type": "node", "id": 368959725, "lat": 35.225421, "lon": 129.091477, "tags": {"amenity": "restaurant", "name": "\ub3d9\uc6d0\ud69f\uc9d1", "name:en": "Dongwon Fish Restaurant", "name:ko": "\ub3d9\uc6d0\ud69f\uc9d1", "name:ko-Latn": "Dongwonhoetjip"}}, {"type": "node", "id": 992945220, "lat": 35.2268227, "lon": 129.0826537, "tags": {"addr:city": "\ubd80\uc0b0\uad11\uc5ed\uc2dc", "addr:district": "\uae08\uc815\uad6c", "addr:housenumber": "205", "addr:street": "\uae08\uac15\ub85c (Geumgangno)", "addr:subdistrict": "\uc7a5\uc804\ub3d9", "amenity": "bank", "name": "\uae08\uc815 \ub18d\ud611 \uc18c\uc815\uc9c0\uc810"}}, {"type": "node", "id": 1240533680, "lat": 35.2361455, "lon": 129.0813518}, {"type": "node", "id": 1240533701, "lat": 35.2357073, "lon": 129.0810621}, {"type": "node", "id": 1240533704, "lat": 35.2356022, "lon": 129.0816147}, {"type": "node", "id": 1240533706, "lat": 35.2358256, "lon": 129.0816683}, {"type": "node", "id": 1240533711, "lat": 35.2356329, "lon": 129.0811694}, {"type": "node", "id": 1240533717, "lat": 35.2344511, "lon": 129.0784366}, {"type": "node", "id": 1240533735, "lat": 35.2346714, "lon": 129.078454}, {"type": "node", "id": 1240533742, "lat": 35.2344611, "lon": 129.0783853}, {"type": "node", "id": 1240533748, "lat": 35.235795, "lon": 129.0817273}, {"type": "node", "id": 1240533754, "lat": 35.2339081, "lon": 129.0787207}, {"type": "node", "id": 1240533761, "lat": 35.2353568, "lon": 129.0814323}, {"type": "node", "id": 1240533785, "lat": 35.2355102, "lon": 129.0816039}, {"type": "node", "id": 1240533871, "lat": 35.235887, "lon": 129.0817327}, {"type": "node", "id": 1240533903, "lat": 35.2347638, "lon": 129.0785438}, {"type": "node", "id": 1240533918, "lat": 35.2346592, "lon": 129.0785094}, {"type": "node", "id": 1240533974, "lat": 35.2355408, "lon": 129.0815449}, {"type": "node", "id": 1240534028, "lat": 35.2355671, "lon": 129.081105}, {"type": "node", "id": 1240534084, "lat": 35.2356372, "lon": 129.081561}, {"type": "node", "id": 1240534118, "lat": 35.2358344, "lon": 129.0810138}, {"type": "node", "id": 1240534137, "lat": 35.2357687, "lon": 129.0811158}, {"type": "node", "id": 1240534168, "lat": 35.2346989, "lon": 129.0788602}, {"type": "node", "id": 1768374358, "lat": 35.2376272, "lon": 129.0883215}, {"type": "node", "id": 1768374359, "lat": 35.237919, "lon": 129.0882477}, {"type": "node", "id": 1768374362, "lat": 35.2372289, "lon": 129.0882745}, {"type": "node", "id": 1768374363, "lat": 35.2385555, "lon": 129.0881804}, {"type": "node", "id": 1768374364, "lat": 35.2387295, "lon": 129.088194}, {"type": "node", "id": 1768374365, "lat": 35.2375856, "lon": 129.0881274}, {"type": "node", "id": 1768374369, "lat": 35.2373265, "lon": 129.0882242}, {"type": "node", "id": 1768374370, "lat": 35.2384272, "lon": 129.088178}, {"type": "node", "id": 1768374371, "lat": 35.2384535, "lon": 129.0879687}, {"type": "node", "id": 1768374372, "lat": 35.2385642, "lon": 129.0879713}, {"type": "node", "id": 1768374373, "lat": 35.2372415, "lon": 129.0883146}, {"type": "node", "id": 1768374374, "lat": 35.2389132, "lon": 129.088039}, {"type": "node", "id": 1768374375, "lat": 35.2382454, "lon": 129.0879821}, {"type": "node", "id": 1768374376, "lat": 35.2380801, "lon": 129.0880043}, {"type": "node", "id": 1768374378, "lat": 35.2389048, "lon": 129.0882128}, {"type": "node", "id": 1768374381, "lat": 35.238206, "lon": 129.0881967}, {"type": "node", "id": 1768374382, "lat": 35.2379224, "lon": 129.0880257}, {"type": "node", "id": 1768374383, "lat": 35.2375904, "lon": 129.0883308}, {"type": "node", "id": 1768374385, "lat": 35.2385652, "lon": 129.0881806}, {"type": "node", "id": 1768374387, "lat": 35.2372837, "lon": 129.0884489}, {"type": "node", "id": 1768374389, "lat": 35.2376135, "lon": 129.0881169}, {"type": "node", "id": 1768374393, "lat": 35.2389079, "lon": 129.0881489}, {"type": "node", "id": 1768374394, "lat": 35.2372685, "lon": 129.0884007}, {"type": "node", "id": 1768374396, "lat": 35.2389157, "lon": 129.0879875}, {"type": "node", "id": 1768374397, "lat": 35.2387953, "lon": 129.0879768}, {"type": "node", "id": 3472707726, "lat": 35.2340275, "lon": 129.0820629, "tags": {"amenity": "post_office", "name": "\uc6b0\uccb4\uad6d"}}, {"type": "node", "id": 3472722647, "lat": 35.2306777, "lon": 129.0860406, "tags": {"amenity": "marketplace"}}, {"type": "node", "id": 4000024664, "lat": 35.2301118, "lon": 129.0884821, "tags": {"amenity": "restaurant", "name": "Ninja Ramen"}}, {"type": "node", "id": 4014128004, "lat": 35.2273019, "lon": 129.083354}, {"type": "node", "id": 4014128005, "lat": 35.2271343, "lon": 129.0835031}, {"type": "node", "id": 4014128006, "lat": 35.2267558, "lon": 129.0846338}, {"type": "node", "id": 4014128007, "lat": 35.2272771, "lon": 129.0848278}, {"type": "node", "id": 4014128008, "lat": 35.2275659, "lon": 129.0848369}, {"type": "node", "id": 4014128010, "lat": 35.2279703, "lon": 129.0849835}, {"type": "node", "id": 4014128016, "lat": 35.2285633, "lon": 129.0842604}, {"type": "node", "id": 4459823789, "lat": 35.2314424, "lon": 129.085848, "tags": {"amenity": "hospital", "name": "\uac24\ub7ec\ub9ac\uc548\uacfc\uc758\uc6d0 (Gallery Eye Clinic)", "name:en": "Gallery Eye Clinic", "name:ko": "\uac24\ub7ec\ub9ac\uc548\uacfc\uc758\uc6d0 (Gallery Eye Clinic)"}}, {"type": "node", "id": 4459823889, "lat": 35.2314023, "lon": 129.0863645, "tags": {"amenity": "bank", "name": "BNK \ubd80\uc0b0\uc740\ud589", "name:en": "BNK Busan Bank", "opening_hours": "Mo-Fr 10:00-17:00"}}, {"type": "node", "id": 4631429396, "lat": 35.2348928, "lon": 129.0863189, "tags": {"addr:city": "\ubd80\uc0b0\uad11\uc5ed\uc2dc", "addr:district": "\uae08\uc815\uad6c", "addr:housenumber": "302", "addr:street": "\uae08\uac15\ub85c (Geumgangno)", "addr:subdistrict": "\uc7a5\uc804\ub3d9", "amenity": "place_of_worship", "name": "\ubbf8\ub798\ub85c\uad50\ud68c", "religion": "christian"}}, {"type": "node", "id": 4631429397, "lat": 35.2360238, "lon": 129.0861173, "tags": {"amenity": "place_of_worship", "name": "\uc7a5\uc804\uc911\uc559\uad50\ud68c", "religion": "christian"}}, {"type": "node", "id": 4631580949, "lat": 35.2328097, "lon": 129.087208, "tags": {"addr:city": "\ubd80\uc0b0\uad11\uc5ed\uc2dc", "addr:district": "\uae08\uc815\uad6c", "addr:housenumber": "94", "addr:street": "\uae08\uc815\ub85c", "addr:subdistrict": "\uc7a5\uc804\ub3d9", "amenity": "cafe", "cuisine": "Coffee_&_Bread", "name": "\uc81c\uc774\uc2a4\ud018\uc5b4", "opening_hours": "12:00-22:30", "smoking": "no"}}, {"type": "node", "id": 4632038034, "lat": 35.236439, "lon": 129.0833333, "tags": {"amenity": "childcare", "name": "\ubd80\uc0b0\ub300\ud559\uad50\ubd80\uc124 \uc5b4\ub9b0\uc774\uc9d1"}}, {"type": "node", "id": 4632519041, "lat": 35.2348844, "lon": 129.0861543}, {"type": "node", "id": 4632519042, "lat": 35.2348779, "lon": 129.0861865}, {"type": "node", "id": 4632519043, "lat": 35.2348916, "lon": 129.0861903}, {"type": "node", "id": 4632519044, "lat": 35.234874, "lon": 129.0862812}, {"type": "node", "id": 4632519045, "lat": 35.23484, "lon": 129.0862751}, {"type": "node", "id": 4632519046, "lat": 35.2348073, "lon": 129.0864522}, {"type": "node", "id": 4632519047, "lat": 35.2346576, "lon": 129.0864199}, {"type": "node", "id": 4632519048, "lat": 35.2347104, "lon": 129.0861072}, {"type": "node", "id": 4632519049, "lat": 35.2363933, "lon": 129.0861022}, {"type": "node", "id": 4632519050, "lat": 35.2363539, "lon": 129.0863346}, {"type": "node", "id": 4632519051, "lat": 35.2360846, "lon": 129.0862663}, {"type": "node", "id": 4632519052, "lat": 35.236124, "lon": 129.0860338}, {"type": "node", "id": 4632643951, "lat": 35.2392078, "lon": 129.0921143, "tags": {"amenity": "hospital", "name": "\uc138\uad11\ud55c\uc758\uc6d0", "name:en": "Segwang Oriental Medicine Clinic", "name:ko": "\uc138\uad11\ud55c\uc758\uc6d0", "name:ko-Latn": "Segwanghanuiwon"}}, {"type": "node", "id": 4632643963, "lat": 35.229894, "lon": 129.0920327}, {"type": "node", "id": 4632643967, "lat": 35.2299851, "lon": 129.0918707}, {"type": "node", "id": 4632643974, "lat": 35.230362, "lon": 129.0879188}, {"type": "node", "id": 4632643975, "lat": 35.2302148, "lon": 129.0883595}, {"type": "node", "id": 4632643976, "lat": 35.2301795, "lon": 129.0883789}, {"type": "node", "id": 4632643977, "lat": 35.2301452, "lon": 129.0883789}, {"type": "node", "id": 4632643978, "lat": 35.2298956, "lon": 129.088254}, {"type": "node", "id": 4632643979, "lat": 35.2300583, "lon": 129.0877668}, {"type": "node", "id": 4632643980, "lat": 35.2286824, "lon": 129.0859644}, {"type": "node", "id": 4632643981, "lat": 35.2284872, "lon": 129.0859363}, {"type": "node", "id": 4632643982, "lat": 35.2284672, "lon": 129.0858936}, {"type": "node", "id": 4632643983, "lat": 35.2285856, "lon": 129.0856084}, {"type": "node", "id": 4632643984, "lat": 35.2286679, "lon": 129.0856572}, {"type": "node", "id": 4632643985, "lat": 35.2287115, "lon": 129.0857685}, {"type": "node", "id": 4632647090, "lat": 35.2298103, "lon": 129.0844039}, {"type": "node", "id": 4632647091, "lat": 35.2297801, "lon": 129.0845842}, {"type": "node", "id": 4632647092, "lat": 35.229748, "lon": 129.0845866}, {"type": "node", "id": 4632647093, "lat": 35.2297102, "lon": 129.0845773}, {"type": "node", "id": 4632647094, "lat": 35.2296838, "lon": 129.0845565}, {"type": "node", "id": 4632647095, "lat": 35.2297159, "lon": 129.0843785}, {"type": "node", "id": 4632647096, "lat": 35.2291342, "lon": 129.0859229}, {"type": "node", "id": 4632647097, "lat": 35.2291247, "lon": 129.0860431}, {"type": "node", "id": 4632647098, "lat": 35.2290171, "lon": 129.0860269}, {"type": "node", "id": 4632647099, "lat": 35.2290246, "lon": 129.085909}, {"type": "node", "id": 4632647100, "lat": 35.2289308, "lon": 129.0866737}, {"type": "node", "id": 4632647101, "lat": 35.2289619, "lon": 129.0862783}, {"type": "node", "id": 4632647102, "lat": 35.2291044, "lon": 129.0862951}, {"type": "node", "id": 4632647103, "lat": 35.2291002, "lon": 129.0863483}, {"type": "node", "id": 4632647104, "lat": 35.2291323, "lon": 129.0863922}, {"type": "node", "id": 4632647105, "lat": 35.2291266, "lon": 129.0864893}, {"type": "node", "id": 4632647106, "lat": 35.22907, "lon": 129.0865494}, {"type": "node", "id": 4632647107, "lat": 35.229059, "lon": 129.0866888}, {"type": "node", "id": 4632647108, "lat": 35.2290722, "lon": 129.0859734, "tags": {"addr:city": "\ubd80\uc0b0\uad11\uc5ed\uc2dc", "addr:district": "\uae08\uc815\uad6c", "addr:housenumber": "49", "addr:street": "\uae08\uc815\ub85c", "addr:subdistrict": "\uc7a5\uc804\ub3d9", "amenity": "police", "name": "\uc7a5\uc804\uc9c0\uad6c\ub300"}}, {"type": "node", "id": 4632647119, "lat": 35.2330086, "lon": 129.0868826}, {"type": "node", "id": 4632647120, "lat": 35.2330391, "lon": 129.0867059}, {"type": "node", "id": 4632647121, "lat": 35.2330634, "lon": 129.0866726}, {"type": "node", "id": 4632647122, "lat": 35.2330902, "lon": 129.0866795}, {"type": "node", "id": 4632647123, "lat": 35.2330979, "lon": 129.0866351}, {"type": "node", "id": 4632647124, "lat": 35.2332164, "lon": 129.0866658}, {"type": "node", "id": 4632647125, "lat": 35.2331717, "lon": 129.0869249}, {"type": "node", "id": 4632647126, "lat": 35.2327844, "lon": 129.0872972}, {"type": "node", "id": 4632647127, "lat": 35.2329526, "lon": 129.0873428}, {"type": "node", "id": 4632647128, "lat": 35.2329923, "lon": 129.0871236}, {"type": "node", "id": 4632647129, "lat": 35.2329658, "lon": 129.0871164}, {"type": "node", "id": 4632647130, "lat": 35.2329545, "lon": 129.0871791}, {"type": "node", "id": 4632647131, "lat": 35.2328128, "lon": 129.0871406}, {"type": "node", "id": 4632647132, "lat": 35.2315229, "lon": 129.0862867}, {"type": "node", "id": 4632647133, "lat": 35.2314904, "lon": 129.0864646}, {"type": "node", "id": 4632647134, "lat": 35.2313624, "lon": 129.0864354}, {"type": "node", "id": 4632647135, "lat": 35.231319, "lon": 129.0863584}, {"type": "node", "id": 4632647136, "lat": 35.2313364, "lon": 129.0862415}, {"type": "node", "id": 4632756299, "lat": 35.237769, "lon": 129.084955}, {"type": "node", "id": 4632756300, "lat": 35.2377933, "lon": 129.084962}, {"type": "node", "id": 4632756301, "lat": 35.2378019, "lon": 129.0849795}, {"type": "node", "id": 4632756302, "lat": 35.2377905, "lon": 129.0850023}, {"type": "node", "id": 4632756303, "lat": 35.2376202, "lon": 129.085011}, {"type": "node", "id": 4632756304, "lat": 35.237613, "lon": 129.0848849}, {"type": "node", "id": 4632756305, "lat": 35.2377647, "lon": 129.0848691}, {"type": "node", "id": 4632756307, "lat": 35.2335128, "lon": 129.084729}, {"type": "node", "id": 4632756308, "lat": 35.2334144, "lon": 129.0846726}, {"type": "node", "id": 4632756309, "lat": 35.2333932, "lon": 129.0847138}, {"type": "node", "id": 4632756310, "lat": 35.2334244, "lon": 129.0847351}, {"type": "node", "id": 4632756311, "lat": 35.2333995, "lon": 129.084816}, {"type": "node", "id": 4632756312, "lat": 35.2334705, "lon": 129.0848572}, {"type": "node", "id": 4632756316, "lat": 35.2321109, "lon": 129.0845161, "tags": {"amenity": "cafe", "brand": "\uc2a4\ud0c0\ubc85\uc2a4", "brand:en": "Starbucks", "brand:wikidata": "Q37158", "cuisine": "coffee_shop", "int_name": "Starbucks", "internet_access": "wlan", "name": "\uc2a4\ud0c0\ubc85\uc2a4 \ubd80\uc0b0\ub300\uc815\ubb38\uc810", "name:de": "Starbucks", "name:en": "Starbucks", "name:ja": "\u30b9\u30bf\u30fc\u30d0\u30c3\u30af\u30b9", "name:ko": "\uc2a4\ud0c0\ubc85\uc2a4", "name:ru": "\u0421\u0442\u0430\u0440\u0431\u0430\u043a\u0441", "name:zh": "\u661f\u5df4\u514b", "opening_hours": "07:00-23:00", "operator": "(\uc8fc)\uc2a4\ud0c0\ubc85\uc2a4\ucee4\ud53c \ucf54\ub9ac\uc544", "payment:american_express": "yes", "payment:coins": "yes", "payment:diners_club": "yes", "payment:discover_card": "yes", "payment:jcb": "yes", "payment:mastercard": "yes", "payment:notes": "yes", "payment:unionpay": "yes", "payment:visa": "yes", "smoking": "no", "website": "http://www.istarbucks.co.kr/index.do"}}, {"type": "node", "id": 4632756317, "lat": 35.2284711, "lon": 129.0896472}, {"type": "node", "id": 4632756318, "lat": 35.2284879, "lon": 129.0896457}, {"type": "node", "id": 4632756319, "lat": 35.2285016, "lon": 129.0896464}, {"type": "node", "id": 4632756320, "lat": 35.2285097, "lon": 129.0896548}, {"type": "node", "id": 4632756321, "lat": 35.2285122, "lon": 129.0896663}, {"type": "node", "id": 4632756322, "lat": 35.2285116, "lon": 129.0896769}, {"type": "node", "id": 4632756323, "lat": 35.2285066, "lon": 129.0896853}, {"type": "node", "id": 4632756324, "lat": 35.2284985, "lon": 129.0896952}, {"type": "node", "id": 4632756325, "lat": 35.2284835, "lon": 129.0897021}, {"type": "node", "id": 4632756326, "lat": 35.2284723, "lon": 129.0897036}, {"type": "node", "id": 4632756327, "lat": 35.2284592, "lon": 129.0897052}, {"type": "node", "id": 4632756328, "lat": 35.2284611, "lon": 129.0897204}, {"type": "node", "id": 4632756329, "lat": 35.2284374, "lon": 129.0897982}, {"type": "node", "id": 4632756330, "lat": 35.2284543, "lon": 129.0898226}, {"type": "node", "id": 4632756331, "lat": 35.2284599, "lon": 129.0898424}, {"type": "node", "id": 4632756332, "lat": 35.2284642, "lon": 129.0898684}, {"type": "node", "id": 4632756333, "lat": 35.2284636, "lon": 129.0898912}, {"type": "node", "id": 4632756334, "lat": 35.2284524, "lon": 129.0899263}, {"type": "node", "id": 4632756335, "lat": 35.2284331, "lon": 129.0899416}, {"type": "node", "id": 4632756336, "lat": 35.2284097, "lon": 129.0899416}, {"type": "node", "id": 4632756337, "lat": 35.2283937, "lon": 129.0899225}, {"type": "node", "id": 4632756338, "lat": 35.2283726, "lon": 129.0899298}, {"type": "node", "id": 4632756339, "lat": 35.2283577, "lon": 129.0899799}, {"type": "node", "id": 4632756340, "lat": 35.2281415, "lon": 129.0898517}, {"type": "node", "id": 4632756341, "lat": 35.2282265, "lon": 129.0896}, {"type": "node", "id": 4632756342, "lat": 35.2282684, "lon": 129.0896175}, {"type": "node", "id": 4632756343, "lat": 35.2282769, "lon": 129.0896033}, {"type": "node", "id": 4632756344, "lat": 35.2283441, "lon": 129.0896146}, {"type": "node", "id": 4632756345, "lat": 35.228336, "lon": 129.0896355}, {"type": "node", "id": 4632756346, "lat": 35.2284459, "lon": 129.0896695}, {"type": "node", "id": 4632756347, "lat": 35.228456, "lon": 129.0896553}, {"type": "node", "id": 4632756348, "lat": 35.2275788, "lon": 129.0894746}, {"type": "node", "id": 4632756349, "lat": 35.22749, "lon": 129.0897129}, {"type": "node", "id": 4632756350, "lat": 35.2271823, "lon": 129.0895377}, {"type": "node", "id": 4632756351, "lat": 35.2271694, "lon": 129.0894168}, {"type": "node", "id": 4632756352, "lat": 35.2271995, "lon": 129.0892959}, {"type": "node", "id": 4632756353, "lat": 35.2275444, "lon": 129.0893975}, {"type": "node", "id": 4632756354, "lat": 35.2275602, "lon": 129.0894221}, {"type": "node", "id": 4632769183, "lat": 35.2371337, "lon": 129.0879116}, {"type": "node", "id": 4632769184, "lat": 35.2370307, "lon": 129.0879011}, {"type": "node", "id": 4632769185, "lat": 35.2370293, "lon": 129.0879817}, {"type": "node", "id": 4632769186, "lat": 35.2371609, "lon": 129.0879939}, {"type": "node", "id": 4632769187, "lat": 35.2371623, "lon": 129.0879659}, {"type": "node", "id": 4632769188, "lat": 35.2371337, "lon": 129.0879624}, {"type": "node", "id": 4655133846, "lat": 35.2285727, "lon": 129.0861782, "tags": {"amenity": "cafe", "cuisine": "coffee_shop", "internet_access": "yes", "internet_access:fee": "yes", "name": "Nohs Coffee", "opening_hours": "\ud3c9\uc77c 08:00 AM - 11:00 PM / \uc8fc\ub9d0 12:00 PM - 10 : 00 PM", "outdoor_seating": "yes", "smoking": "no"}}, {"type": "node", "id": 4663059192, "lat": 35.2375349, "lon": 129.0790044}, {"type": "node", "id": 4663059193, "lat": 35.2372119, "lon": 129.079447}, {"type": "node", "id": 4663059194, "lat": 35.2368655, "lon": 129.0804361}, {"type": "node", "id": 4663059195, "lat": 35.2368019, "lon": 129.0807173}, {"type": "node", "id": 4663059196, "lat": 35.2368153, "lon": 129.0811654}, {"type": "node", "id": 4663059197, "lat": 35.2369227, "lon": 129.081195}, {"type": "node", "id": 4663059198, "lat": 35.2369094, "lon": 129.0829411}, {"type": "node", "id": 4663059199, "lat": 35.2363004, "lon": 129.0829439}, {"type": "node", "id": 4663059200, "lat": 35.2355815, "lon": 129.0829425}, {"type": "node", "id": 4663059201, "lat": 35.2354259, "lon": 129.082931}, {"type": "node", "id": 4663059202, "lat": 35.2342168, "lon": 129.0828932}, {"type": "node", "id": 4663059203, "lat": 35.2336872, "lon": 129.0838398}, {"type": "node", "id": 4663059204, "lat": 35.2335784, "lon": 129.0839116}, {"type": "node", "id": 4663059205, "lat": 35.2333103, "lon": 129.0846867}, {"type": "node", "id": 4663059206, "lat": 35.2325707, "lon": 129.0844573}, {"type": "node", "id": 4663059207, "lat": 35.2325035, "lon": 129.0843887}, {"type": "node", "id": 4663059208, "lat": 35.2326798, "lon": 129.0835138}, {"type": "node", "id": 4663059210, "lat": 35.2320024, "lon": 129.0832902}, {"type": "node", "id": 4663059211, "lat": 35.2318586, "lon": 129.0833971}, {"type": "node", "id": 4663059214, "lat": 35.2300484, "lon": 129.0837378}, {"type": "node", "id": 4663059215, "lat": 35.2300856, "lon": 129.0828945}, {"type": "node", "id": 4663059216, "lat": 35.2305775, "lon": 129.0818964}, {"type": "node", "id": 4663059217, "lat": 35.2304122, "lon": 129.0814316}, {"type": "node", "id": 4663059219, "lat": 35.2299494, "lon": 129.0811973}, {"type": "node", "id": 4663059220, "lat": 35.2302755, "lon": 129.0801915}, {"type": "node", "id": 4663059221, "lat": 35.2306747, "lon": 129.0795184}, {"type": "node", "id": 4663059222, "lat": 35.2309848, "lon": 129.0789253}, {"type": "node", "id": 4663059223, "lat": 35.2316245, "lon": 129.0780338}, {"type": "node", "id": 4663059224, "lat": 35.2319537, "lon": 129.0774745}, {"type": "node", "id": 4663059225, "lat": 35.2320244, "lon": 129.0762217}, {"type": "node", "id": 4663059226, "lat": 35.2318766, "lon": 129.0757988}, {"type": "node", "id": 4663059227, "lat": 35.2319925, "lon": 129.0754139}, {"type": "node", "id": 4663059228, "lat": 35.2317761, "lon": 129.0753189}, {"type": "node", "id": 4663059229, "lat": 35.2316243, "lon": 129.0750224}, {"type": "node", "id": 4663059230, "lat": 35.2320313, "lon": 129.0747733}, {"type": "node", "id": 4663059231, "lat": 35.2327193, "lon": 129.0743106}, {"type": "node", "id": 4663059232, "lat": 35.23332, "lon": 129.0741287}, {"type": "node", "id": 4663059233, "lat": 35.2339531, "lon": 129.0742552}, {"type": "node", "id": 4663059234, "lat": 35.2340823, "lon": 129.0740457}, {"type": "node", "id": 4663059235, "lat": 35.2344828, "lon": 129.0738519}, {"type": "node", "id": 4663059236, "lat": 35.235413, "lon": 129.0739864}, {"type": "node", "id": 4663059237, "lat": 35.2358038, "lon": 129.0743304}, {"type": "node", "id": 4663059238, "lat": 35.2359782, "lon": 129.0749196}, {"type": "node", "id": 4663059239, "lat": 35.2358425, "lon": 129.0758132}, {"type": "node", "id": 4663059240, "lat": 35.2359459, "lon": 129.0759595}, {"type": "node", "id": 4663059241, "lat": 35.2365305, "lon": 129.0758567}, {"type": "node", "id": 4663059242, "lat": 35.2366107, "lon": 129.0767076}, {"type": "node", "id": 4663059243, "lat": 35.2374994, "lon": 129.0765883}, {"type": "node", "id": 4663059244, "lat": 35.2377416, "lon": 129.0768849}, {"type": "node", "id": 4663059245, "lat": 35.2384037, "lon": 129.0766753}, {"type": "node", "id": 4663059246, "lat": 35.2385362, "lon": 129.0771261}, {"type": "node", "id": 4663059247, "lat": 35.2384586, "lon": 129.0778497}, {"type": "node", "id": 4663059248, "lat": 35.2378288, "lon": 129.0782491}, {"type": "node", "id": 4663066416, "lat": 35.2379561, "lon": 129.081138}, {"type": "node", "id": 4663066417, "lat": 35.2379894, "lon": 129.0812868}, {"type": "node", "id": 4663066418, "lat": 35.2369914, "lon": 129.0811716}, {"type": "node", "id": 4663066419, "lat": 35.2369855, "lon": 129.081042}, {"type": "node", "id": 4663084539, "lat": 35.2323048, "lon": 129.0889412}, {"type": "node", "id": 4663084540, "lat": 35.2322303, "lon": 129.089335}, {"type": "node", "id": 4663084543, "lat": 35.2312028, "lon": 129.0893542}, {"type": "node", "id": 4663084544, "lat": 35.2312106, "lon": 129.0889653}, {"type": "node", "id": 4663084545, "lat": 35.2317087, "lon": 129.0888836}, {"type": "node", "id": 4663107412, "lat": 35.2276933, "lon": 129.080806}, {"type": "node", "id": 4663107413, "lat": 35.2271978, "lon": 129.080644}, {"type": "node", "id": 4663107414, "lat": 35.2274281, "lon": 129.0796667}, {"type": "node", "id": 4663107415, "lat": 35.2277762, "lon": 129.0797768}, {"type": "node", "id": 4663108965, "lat": 35.2409591, "lon": 129.0916586}, {"type": "node", "id": 4663108966, "lat": 35.2407992, "lon": 129.091739}, {"type": "node", "id": 4663108967, "lat": 35.2406918, "lon": 129.0925598}, {"type": "node", "id": 4663114661, "lat": 35.2408786, "lon": 129.080792}, {"type": "node", "id": 4663114662, "lat": 35.241162, "lon": 129.0810183}, {"type": "node", "id": 4663114664, "lat": 35.241916, "lon": 129.0819904}, {"type": "node", "id": 4663114667, "lat": 35.2416973, "lon": 129.082258}, {"type": "node", "id": 4663114668, "lat": 35.241701, "lon": 129.0830949}, {"type": "node", "id": 4663114669, "lat": 35.2403008, "lon": 129.083087}, {"type": "node", "id": 4663114670, "lat": 35.2402997, "lon": 129.0822555}, {"type": "node", "id": 4663118937, "lat": 35.2319948, "lon": 129.0769564}, {"type": "node", "id": 4663118938, "lat": 35.2319948, "lon": 129.0772174}, {"type": "node", "id": 4663118939, "lat": 35.2319011, "lon": 129.0775732}, {"type": "node", "id": 4663118940, "lat": 35.2316266, "lon": 129.077763}, {"type": "node", "id": 4663118941, "lat": 35.2310743, "lon": 129.0774586}, {"type": "node", "id": 4663118942, "lat": 35.2311356, "lon": 129.0772213}, {"type": "node", "id": 4663118943, "lat": 35.2310226, "lon": 129.0771541}, {"type": "node", "id": 4663118944, "lat": 35.2311421, "lon": 129.0767863}, {"type": "node", "id": 4663118945, "lat": 35.2315394, "lon": 129.0769485}, {"type": "node", "id": 4663118946, "lat": 35.2317106, "lon": 129.076818}, {"type": "node", "id": 4663127343, "lat": 35.2336866, "lon": 129.0790129}, {"type": "node", "id": 4663127344, "lat": 35.2335969, "lon": 129.0789837}, {"type": "node", "id": 4663127345, "lat": 35.2335132, "lon": 129.0791609}, {"type": "node", "id": 4663127346, "lat": 35.2336501, "lon": 129.0791999}, {"type": "node", "id": 4663131913, "lat": 35.2342107, "lon": 129.0787391}, {"type": "node", "id": 4663131914, "lat": 35.234299, "lon": 129.0783303}, {"type": "node", "id": 4663131915, "lat": 35.2340267, "lon": 129.0782413}, {"type": "node", "id": 4663149417, "lat": 35.2354991, "lon": 129.0806612}, {"type": "node", "id": 4663149418, "lat": 35.2354509, "lon": 129.0807577}, {"type": "node", "id": 4663149419, "lat": 35.2355319, "lon": 129.0808435}, {"type": "node", "id": 4663149420, "lat": 35.2355604, "lon": 129.0810393}, {"type": "node", "id": 4663149421, "lat": 35.2356086, "lon": 129.0810957}, {"type": "node", "id": 4663149422, "lat": 35.2356371, "lon": 129.081042}, {"type": "node", "id": 4663149423, "lat": 35.23567, "lon": 129.0810849}, {"type": "node", "id": 4663149424, "lat": 35.2356941, "lon": 129.081034}, {"type": "node", "id": 4663149425, "lat": 35.2357576, "lon": 129.0810876}, {"type": "node", "id": 4663149426, "lat": 35.2358102, "lon": 129.0809991}, {"type": "node", "id": 4663151030, "lat": 35.2366536, "lon": 129.0807395}, {"type": "node", "id": 4663151031, "lat": 35.236609, "lon": 129.0810619}, {"type": "node", "id": 4663151032, "lat": 35.2367974, "lon": 129.0810995}, {"type": "node", "id": 4663151033, "lat": 35.2368197, "lon": 129.0808567}, {"type": "node", "id": 4663151034, "lat": 35.2367902, "lon": 129.0807713}, {"type": "node", "id": 4663169077, "lat": 35.2328284, "lon": 129.0831769}, {"type": "node", "id": 4663169078, "lat": 35.2327911, "lon": 129.0833405}, {"type": "node", "id": 4663169079, "lat": 35.2322058, "lon": 129.0831185}, {"type": "node", "id": 4663169080, "lat": 35.2322497, "lon": 129.082955}, {"type": "node", "id": 4663169486, "lat": 35.2329894, "lon": 129.0832677}, {"type": "node", "id": 4663169487, "lat": 35.2329419, "lon": 129.0834224}, {"type": "node", "id": 4663169488, "lat": 35.233211, "lon": 129.0835286}, {"type": "node", "id": 4663169989, "lat": 35.2332783, "lon": 129.0833766}, {"type": "node", "id": 4663170298, "lat": 35.2330979, "lon": 129.0824392}, {"type": "node", "id": 4663170299, "lat": 35.2330146, "lon": 129.0827584}, {"type": "node", "id": 4663170300, "lat": 35.2328631, "lon": 129.0826933}, {"type": "node", "id": 4663170301, "lat": 35.2329489, "lon": 129.0823722}, {"type": "node", "id": 4663170362, "lat": 35.2337464, "lon": 129.0826404}, {"type": "node", "id": 4663170363, "lat": 35.2335448, "lon": 129.0834424}, {"type": "node", "id": 4663170364, "lat": 35.233398, "lon": 129.0833834}, {"type": "node", "id": 4663170365, "lat": 35.2333433, "lon": 129.0835577}, {"type": "node", "id": 4663191423, "lat": 35.2357653, "lon": 129.078695}, {"type": "node", "id": 4663191424, "lat": 35.2356825, "lon": 129.0790771}, {"type": "node", "id": 4663191425, "lat": 35.2360921, "lon": 129.07921}, {"type": "node", "id": 4663191426, "lat": 35.2361749, "lon": 129.0788278}, {"type": "node", "id": 4663193855, "lat": 35.23115, "lon": 129.082996}, {"type": "node", "id": 4663193856, "lat": 35.231311, "lon": 129.0832175}, {"type": "node", "id": 4663193857, "lat": 35.2312817, "lon": 129.0832614}, {"type": "node", "id": 4663193858, "lat": 35.2311101, "lon": 129.0830448}, {"type": "node", "id": 4663194560, "lat": 35.2313069, "lon": 129.0839912}, {"type": "node", "id": 4663194561, "lat": 35.2312938, "lon": 129.0840663}, {"type": "node", "id": 4663194562, "lat": 35.2301939, "lon": 129.0837579}, {"type": "node", "id": 4663194563, "lat": 35.2302071, "lon": 129.0836828}, {"type": "node", "id": 4663200476, "lat": 35.2300832, "lon": 129.0830758}, {"type": "node", "id": 4663200477, "lat": 35.2304377, "lon": 129.0822345}, {"type": "node", "id": 4663200478, "lat": 35.2301573, "lon": 129.0822439}, {"type": "node", "id": 4663200479, "lat": 35.2299987, "lon": 129.0826236}, {"type": "node", "id": 4663200480, "lat": 35.2299906, "lon": 129.0827644}, {"type": "node", "id": 4663200481, "lat": 35.2299887, "lon": 129.0828912}, {"type": "node", "id": 4663203410, "lat": 35.2326566, "lon": 129.080598}, {"type": "node", "id": 4663203411, "lat": 35.2325265, "lon": 129.0805254}, {"type": "node", "id": 4663203412, "lat": 35.232463, "lon": 129.0805675, "tags": {"amenity": "parking_space"}}, {"type": "node", "id": 4663203413, "lat": 35.2322096, "lon": 129.0804293}, {"type": "node", "id": 4663203414, "lat": 35.2322139, "lon": 129.0804802}, {"type": "node", "id": 4663203415, "lat": 35.2325603, "lon": 129.0806719}, {"type": "node", "id": 4663203416, "lat": 35.2321146, "lon": 129.0803699}, {"type": "node", "id": 4663203417, "lat": 35.2318501, "lon": 129.0802244}, {"type": "node", "id": 4663203418, "lat": 35.2318144, "lon": 129.0802608}, {"type": "node", "id": 4663203419, "lat": 35.2320849, "lon": 129.0804027}, {"type": "node", "id": 4663207685, "lat": 35.2321255, "lon": 129.0786151}, {"type": "node", "id": 4663207686, "lat": 35.232108, "lon": 129.0786902}, {"type": "node", "id": 4663207687, "lat": 35.2317936, "lon": 129.0785749}, {"type": "node", "id": 4663207688, "lat": 35.2318133, "lon": 129.0784957}, {"type": "node", "id": 4663215930, "lat": 35.2325878, "lon": 129.078029}, {"type": "node", "id": 4663215931, "lat": 35.2325001, "lon": 129.0779942}, {"type": "node", "id": 4663215932, "lat": 35.2324366, "lon": 129.0782382}, {"type": "node", "id": 4663215933, "lat": 35.2325209, "lon": 129.0782718}, {"type": "node", "id": 4663215934, "lat": 35.2326261, "lon": 129.0779097}, {"type": "node", "id": 4663215935, "lat": 35.2326108, "lon": 129.077966}, {"type": "node", "id": 4663215936, "lat": 35.2324695, "lon": 129.0779164}, {"type": "node", "id": 4663215937, "lat": 35.2324826, "lon": 129.0778574}, {"type": "node", "id": 4663217934, "lat": 35.2324136, "lon": 129.0787251}, {"type": "node", "id": 4663217935, "lat": 35.2323961, "lon": 129.0788042}, {"type": "node", "id": 4663217936, "lat": 35.2322405, "lon": 129.0787438}, {"type": "node", "id": 4663217937, "lat": 35.2322602, "lon": 129.0786674}, {"type": "node", "id": 4663219616, "lat": 35.231863, "lon": 129.0781474}, {"type": "node", "id": 4663219617, "lat": 35.2317847, "lon": 129.0784376}, {"type": "node", "id": 4663219618, "lat": 35.2317304, "lon": 129.0784156}, {"type": "node", "id": 4663219619, "lat": 35.2318088, "lon": 129.0781255}, {"type": "node", "id": 4663235537, "lat": 35.2372008, "lon": 129.0776308}, {"type": "node", "id": 4663235538, "lat": 35.2371594, "lon": 129.0777678}, {"type": "node", "id": 4663235539, "lat": 35.2369272, "lon": 129.0775065}, {"type": "node", "id": 4663235540, "lat": 35.2368872, "lon": 129.0776397}, {"type": "node", "id": 4663244478, "lat": 35.2355556, "lon": 129.0769172}, {"type": "node", "id": 4663244479, "lat": 35.2355405, "lon": 129.0769861}, {"type": "node", "id": 4663244480, "lat": 35.2353031, "lon": 129.0769095, "tags": {"amenity": "parking_space"}}, {"type": "node", "id": 4663244481, "lat": 35.2353183, "lon": 129.076842}, {"type": "node", "id": 4663244485, "lat": 35.2352656, "lon": 129.0768229}, {"type": "node", "id": 4663244486, "lat": 35.2352535, "lon": 129.0768805}, {"type": "node", "id": 4663244487, "lat": 35.2350049, "lon": 129.0767974}, {"type": "node", "id": 4663244488, "lat": 35.2350191, "lon": 129.0767384}, {"type": "node", "id": 4663256439, "lat": 35.2364852, "lon": 129.0793008}, {"type": "node", "id": 4663256440, "lat": 35.2364606, "lon": 129.0793291}, {"type": "node", "id": 4663256441, "lat": 35.2363438, "lon": 129.0791637}, {"type": "node", "id": 4663256442, "lat": 35.2363713, "lon": 129.0791347}, {"type": "node", "id": 4663256443, "lat": 35.236372, "lon": 129.0793069}, {"type": "node", "id": 4663256444, "lat": 35.2361223, "lon": 129.0795653}, {"type": "node", "id": 4663256445, "lat": 35.2361446, "lon": 129.0795889}, {"type": "node", "id": 4663256446, "lat": 35.2363883, "lon": 129.0793306}, {"type": "node", "id": 4663269197, "lat": 35.2352284, "lon": 129.0823021}, {"type": "node", "id": 4663269198, "lat": 35.2352259, "lon": 129.0824432}, {"type": "node", "id": 4663269199, "lat": 35.2350023, "lon": 129.0824325}, {"type": "node", "id": 4663269200, "lat": 35.2350081, "lon": 129.0822906}, {"type": "node", "id": 4663269201, "lat": 35.2352361, "lon": 129.0825194}, {"type": "node", "id": 4663269202, "lat": 35.2352359, "lon": 129.0825817}, {"type": "node", "id": 4663269203, "lat": 35.2350826, "lon": 129.0825786}, {"type": "node", "id": 4663269204, "lat": 35.2350835, "lon": 129.082516}, {"type": "node", "id": 4663269205, "lat": 35.2349446, "lon": 129.0820394}, {"type": "node", "id": 4663269206, "lat": 35.234931, "lon": 129.0825131}, {"type": "node", "id": 4663269207, "lat": 35.2348835, "lon": 129.0825133}, {"type": "node", "id": 4663269208, "lat": 35.2348965, "lon": 129.0820371}, {"type": "node", "id": 4663269209, "lat": 35.2348091, "lon": 129.0820306}, {"type": "node", "id": 4663269210, "lat": 35.2348017, "lon": 129.0825113}, {"type": "node", "id": 4663269211, "lat": 35.2347467, "lon": 129.0825113}, {"type": "node", "id": 4663269212, "lat": 35.234752, "lon": 129.0820282}, {"type": "node", "id": 4663269213, "lat": 35.2351618, "lon": 129.0810135}, {"type": "node", "id": 4663269214, "lat": 35.2350155, "lon": 129.0814808}, {"type": "node", "id": 4663269215, "lat": 35.234981, "lon": 129.0814687}, {"type": "node", "id": 4663269216, "lat": 35.2351175, "lon": 129.0809979}, {"type": "node", "id": 4663269217, "lat": 35.2350742, "lon": 129.0809817}, {"type": "node", "id": 4663269218, "lat": 35.2349598, "lon": 129.0814584}, {"type": "node", "id": 4663269219, "lat": 35.2349197, "lon": 129.0814438}, {"type": "node", "id": 4663269220, "lat": 35.2350296, "lon": 129.0809653}, {"type": "node", "id": 4663279870, "lat": 35.2347983, "lon": 129.0806306}, {"type": "node", "id": 4663279871, "lat": 35.2347862, "lon": 129.0806842}, {"type": "node", "id": 4663279872, "lat": 35.2349418, "lon": 129.0807378}, {"type": "node", "id": 4663279873, "lat": 35.2349527, "lon": 129.0806842}, {"type": "node", "id": 4663279874, "lat": 35.2350853, "lon": 129.0807472}, {"type": "node", "id": 4663279875, "lat": 35.2350743, "lon": 129.0807942}, {"type": "node", "id": 4663279876, "lat": 35.2352222, "lon": 129.0808384}, {"type": "node", "id": 4663279877, "lat": 35.235231, "lon": 129.0807915}, {"type": "node", "id": 4663279878, "lat": 35.2352573, "lon": 129.0807982}, {"type": "node", "id": 4663279879, "lat": 35.2352463, "lon": 129.0808465}, {"type": "node", "id": 4663279880, "lat": 35.2352868, "lon": 129.0808585}, {"type": "node", "id": 4663279881, "lat": 35.2352978, "lon": 129.0808116}, {"type": "node", "id": 4663318255, "lat": 35.231727, "lon": 129.0803226}, {"type": "node", "id": 4663318256, "lat": 35.2317103, "lon": 129.0803716}, {"type": "node", "id": 4663318257, "lat": 35.2314715, "lon": 129.0802491}, {"type": "node", "id": 4663318258, "lat": 35.2314882, "lon": 129.0802002}, {"type": "node", "id": 4663320480, "lat": 35.2306099, "lon": 129.0816756}, {"type": "node", "id": 4663321846, "lat": 35.2330043, "lon": 129.0839669}, {"type": "node", "id": 4663321847, "lat": 35.2329906, "lon": 129.0840201}, {"type": "node", "id": 4663321848, "lat": 35.232764, "lon": 129.0839292}, {"type": "node", "id": 4663321849, "lat": 35.2327793, "lon": 129.0838746}, {"type": "node", "id": 4663321850, "lat": 35.2327368, "lon": 129.0840033}, {"type": "node", "id": 4663321851, "lat": 35.2327268, "lon": 129.0840424}, {"type": "node", "id": 4663321852, "lat": 35.2329595, "lon": 129.0841401}, {"type": "node", "id": 4663321853, "lat": 35.2329709, "lon": 129.0840985}, {"type": "node", "id": 4663321854, "lat": 35.2329788, "lon": 129.0841547}, {"type": "node", "id": 4663321855, "lat": 35.2329436, "lon": 129.0841409}, {"type": "node", "id": 4663321856, "lat": 35.232893, "lon": 129.0843363}, {"type": "node", "id": 4663321857, "lat": 35.232927, "lon": 129.0843509}, {"type": "node", "id": 4663328178, "lat": 35.2364485, "lon": 129.0815939}, {"type": "node", "id": 4663328179, "lat": 35.2364367, "lon": 129.081658}, {"type": "node", "id": 4663328180, "lat": 35.2364142, "lon": 129.0817077}, {"type": "node", "id": 4663328181, "lat": 35.2363907, "lon": 129.0817496}, {"type": "node", "id": 4663328182, "lat": 35.2363537, "lon": 129.0817971}, {"type": "node", "id": 4663328183, "lat": 35.2363023, "lon": 129.0818358}, {"type": "node", "id": 4663328184, "lat": 35.2362229, "lon": 129.0818479}, {"type": "node", "id": 4663328185, "lat": 35.2360632, "lon": 129.0818546}, {"type": "node", "id": 4663328186, "lat": 35.2360641, "lon": 129.0818225}, {"type": "node", "id": 4663328187, "lat": 35.2361616, "lon": 129.0818214}, {"type": "node", "id": 4663328188, "lat": 35.2362473, "lon": 129.0818137}, {"type": "node", "id": 4663329689, "lat": 35.236296, "lon": 129.0818038}, {"type": "node", "id": 4663329690, "lat": 35.2363321, "lon": 129.0817761}, {"type": "node", "id": 4663329691, "lat": 35.23637, "lon": 129.0817353}, {"type": "node", "id": 4663329692, "lat": 35.2364061, "lon": 129.0816834}, {"type": "node", "id": 4663329693, "lat": 35.2364199, "lon": 129.0816496}, {"type": "node", "id": 4663329694, "lat": 35.2364304, "lon": 129.0815918}, {"type": "node", "id": 4663329696, "lat": 35.2363693, "lon": 129.0818888}, {"type": "node", "id": 4663329697, "lat": 35.2363693, "lon": 129.0819275}, {"type": "node", "id": 4663329698, "lat": 35.2358497, "lon": 129.0819275}, {"type": "node", "id": 4663329699, "lat": 35.235847, "lon": 129.081901}, {"type": "node", "id": 4663343383, "lat": 35.2317113, "lon": 129.0842272}, {"type": "node", "id": 4663358807, "lat": 35.2341454, "lon": 129.0806342}, {"type": "node", "id": 4663358808, "lat": 35.2340491, "lon": 129.0810135}, {"type": "node", "id": 4663358809, "lat": 35.2341012, "lon": 129.0810345}, {"type": "node", "id": 4663358810, "lat": 35.2341966, "lon": 129.0806554}, {"type": "node", "id": 4663358811, "lat": 35.2340693, "lon": 129.0805005}, {"type": "node", "id": 4663358812, "lat": 35.2340233, "lon": 129.0806922}, {"type": "node", "id": 4663358813, "lat": 35.2339882, "lon": 129.0806815}, {"type": "node", "id": 4663358814, "lat": 35.2340386, "lon": 129.0804857}, {"type": "node", "id": 4663358815, "lat": 35.2360785, "lon": 129.0832653}, {"type": "node", "id": 4663358816, "lat": 35.2358972, "lon": 129.0832653}, {"type": "node", "id": 4663358817, "lat": 35.2356505, "lon": 129.0833854}, {"type": "node", "id": 4663358818, "lat": 35.2355911, "lon": 129.0835819}, {"type": "node", "id": 4663358819, "lat": 35.2356594, "lon": 129.0837492}, {"type": "node", "id": 4663358820, "lat": 35.2361647, "lon": 129.0837565}, {"type": "node", "id": 4663358821, "lat": 35.2361676, "lon": 129.0832616}, {"type": "node", "id": 4663359373, "lat": 35.2361973, "lon": 129.0839093}, {"type": "node", "id": 4663359374, "lat": 35.2361973, "lon": 129.0842732}, {"type": "node", "id": 4663359375, "lat": 35.2361409, "lon": 129.0842768}, {"type": "node", "id": 4663359376, "lat": 35.2361468, "lon": 129.0843569}, {"type": "node", "id": 4663359377, "lat": 35.2360042, "lon": 129.0843423}, {"type": "node", "id": 4663359378, "lat": 35.2360012, "lon": 129.084386}, {"type": "node", "id": 4663359379, "lat": 35.2356416, "lon": 129.0843933}, {"type": "node", "id": 4663359380, "lat": 35.2356416, "lon": 129.084295}, {"type": "node", "id": 4663359381, "lat": 35.2355465, "lon": 129.084295}, {"type": "node", "id": 4663359382, "lat": 35.2355524, "lon": 129.0839093}, {"type": "node", "id": 4663364767, "lat": 35.2367308, "lon": 129.0830917}, {"type": "node", "id": 4663364768, "lat": 35.2364097, "lon": 129.0830873}, {"type": "node", "id": 4663364769, "lat": 35.2364097, "lon": 129.083147}, {"type": "node", "id": 4663364770, "lat": 35.2363429, "lon": 129.0831492}, {"type": "node", "id": 4663364771, "lat": 35.2362455, "lon": 129.0831492}, {"type": "node", "id": 4663364772, "lat": 35.2362346, "lon": 129.0835534}, {"type": "node", "id": 4663364773, "lat": 35.2367326, "lon": 129.0835601}, {"type": "node", "id": 4663372903, "lat": 35.2342036, "lon": 129.07877}, {"type": "node", "id": 4663376421, "lat": 35.233583, "lon": 129.0790668}, {"type": "node", "id": 4663376422, "lat": 35.2335328, "lon": 129.079052}, {"type": "node", "id": 4663376667, "lat": 35.2341877, "lon": 129.0791978}, {"type": "node", "id": 4663376668, "lat": 35.2341787, "lon": 129.0792332}, {"type": "node", "id": 4663376669, "lat": 35.2347452, "lon": 129.0794187}, {"type": "node", "id": 4663376670, "lat": 35.2347524, "lon": 129.0793812}, {"type": "node", "id": 4663376671, "lat": 35.2348463, "lon": 129.0794121}, {"type": "node", "id": 4663376672, "lat": 35.2348661, "lon": 129.0794651}, {"type": "node", "id": 4663376673, "lat": 35.2355139, "lon": 129.0796772}, {"type": "node", "id": 4663376674, "lat": 35.2355012, "lon": 129.0796264}, {"type": "node", "id": 4663376675, "lat": 35.2341047, "lon": 129.0791735}, {"type": "node", "id": 4663376676, "lat": 35.2340975, "lon": 129.0791978}, {"type": "node", "id": 4663376677, "lat": 35.2338503, "lon": 129.0791249}, {"type": "node", "id": 4663376678, "lat": 35.2338539, "lon": 129.0791006}, {"type": "node", "id": 4663383170, "lat": 35.2341944, "lon": 129.0788101}, {"type": "node", "id": 4663383171, "lat": 35.2339155, "lon": 129.0786826}, {"type": "node", "id": 4663388077, "lat": 35.2347855, "lon": 129.0793561, "tags": {"amenity": "parking_space"}}, {"type": "node", "id": 4663405205, "lat": 35.2319906, "lon": 129.0758757}, {"type": "node", "id": 4663407257, "lat": 35.2320203, "lon": 129.0772683}, {"type": "node", "id": 4663972453, "lat": 35.2352491, "lon": 129.0822172}, {"type": "node", "id": 4663972454, "lat": 35.2352412, "lon": 129.0825891}, {"type": "node", "id": 4663972455, "lat": 35.2350748, "lon": 129.0825907}, {"type": "node", "id": 4663972456, "lat": 35.2350759, "lon": 129.0825209}, {"type": "node", "id": 4663972457, "lat": 35.2348782, "lon": 129.0825185}, {"type": "node", "id": 4663972458, "lat": 35.2348865, "lon": 129.0822067}, {"type": "node", "id": 4663972459, "lat": 35.2350193, "lon": 129.0822087}, {"type": "node", "id": 4663972460, "lat": 35.2350234, "lon": 129.0820383}, {"type": "node", "id": 4663972461, "lat": 35.2348918, "lon": 129.0820337}, {"type": "node", "id": 4663972465, "lat": 35.2348157, "lon": 129.0820159}, {"type": "node", "id": 4663972466, "lat": 35.234809, "lon": 129.0825239}, {"type": "node", "id": 4663972467, "lat": 35.2344532, "lon": 129.0825198}, {"type": "node", "id": 4663972468, "lat": 35.2344665, "lon": 129.0820036}, {"type": "node", "id": 4663972469, "lat": 35.2346873, "lon": 129.0820525}, {"type": "node", "id": 4663972470, "lat": 35.2346541, "lon": 129.0820492}, {"type": "node", "id": 4663972471, "lat": 35.2346441, "lon": 129.0824979}, {"type": "node", "id": 4663972472, "lat": 35.2346767, "lon": 129.0824979}, {"type": "node", "id": 4663972473, "lat": 35.2346095, "lon": 129.0820484}, {"type": "node", "id": 4663972474, "lat": 35.2345836, "lon": 129.0820476}, {"type": "node", "id": 4663972475, "lat": 35.2345723, "lon": 129.0824913}, {"type": "node", "id": 4663972476, "lat": 35.2346015, "lon": 129.0824922}, {"type": "node", "id": 4663972477, "lat": 35.2345217, "lon": 129.0820118}, {"type": "node", "id": 4663972478, "lat": 35.2345111, "lon": 129.0825011}, {"type": "node", "id": 4663972479, "lat": 35.2344758, "lon": 129.0825011}, {"type": "node", "id": 4663972480, "lat": 35.2344871, "lon": 129.082011}, {"type": "node", "id": 4663972481, "lat": 35.2342201, "lon": 129.0806367}, {"type": "node", "id": 4663972482, "lat": 35.2340238, "lon": 129.08046}, {"type": "node", "id": 4663972483, "lat": 35.2339717, "lon": 129.0807008}, {"type": "node", "id": 4663972484, "lat": 35.2340772, "lon": 129.0807447}, {"type": "node", "id": 4663972485, "lat": 35.2340032, "lon": 129.0810056}, {"type": "node", "id": 4663972486, "lat": 35.2341166, "lon": 129.0810523}, {"type": "node", "id": 4663972487, "lat": 35.2367582, "lon": 129.0808525}, {"type": "node", "id": 4663972488, "lat": 35.2367316, "lon": 129.0810666}, {"type": "node", "id": 4663974089, "lat": 35.2367708, "lon": 129.0810756}, {"type": "node", "id": 4663974090, "lat": 35.2367948, "lon": 129.0808598}, {"type": "node", "id": 4663974091, "lat": 35.2367695, "lon": 129.0807971}, {"type": "node", "id": 4663974092, "lat": 35.2367628, "lon": 129.0808492}, {"type": "node", "id": 4663974093, "lat": 35.2366744, "lon": 129.0808305}, {"type": "node", "id": 4663974094, "lat": 35.2366824, "lon": 129.0807776}, {"type": "node", "id": 4663974095, "lat": 35.2365183, "lon": 129.0809704}, {"type": "node", "id": 4663974096, "lat": 35.2364121, "lon": 129.0809517}, {"type": "node", "id": 4663974097, "lat": 35.2364373, "lon": 129.0805896}, {"type": "node", "id": 4663974098, "lat": 35.2364701, "lon": 129.0805292}, {"type": "node", "id": 4663974099, "lat": 35.2363726, "lon": 129.0803978}, {"type": "node", "id": 4663974100, "lat": 35.2363442, "lon": 129.0804286}, {"type": "node", "id": 4663974101, "lat": 35.2360309, "lon": 129.0800357}, {"type": "node", "id": 4663974102, "lat": 35.2360627, "lon": 129.0799914}, {"type": "node", "id": 4663974103, "lat": 35.2359772, "lon": 129.0799043}, {"type": "node", "id": 4663974104, "lat": 35.2359816, "lon": 129.0798466}, {"type": "node", "id": 4663974105, "lat": 35.2360013, "lon": 129.0798493}, {"type": "node", "id": 4663974106, "lat": 35.236055, "lon": 129.0798855}, {"type": "node", "id": 4663974107, "lat": 35.2362105, "lon": 129.0800518}, {"type": "node", "id": 4663974108, "lat": 35.2363168, "lon": 129.0801872}, {"type": "node", "id": 4663974109, "lat": 35.2364745, "lon": 129.0803763}, {"type": "node", "id": 4663974110, "lat": 35.2365238, "lon": 129.0804501}, {"type": "node", "id": 4663974111, "lat": 35.2365567, "lon": 129.080556}, {"type": "node", "id": 4663974112, "lat": 35.2365523, "lon": 129.0806727}, {"type": "node", "id": 4663974113, "lat": 35.2363774, "lon": 129.079128}, {"type": "node", "id": 4663974114, "lat": 35.2363369, "lon": 129.0791709}, {"type": "node", "id": 4663974115, "lat": 35.2363938, "lon": 129.0792594}, {"type": "node", "id": 4663974116, "lat": 35.2360959, "lon": 129.0795907}, {"type": "node", "id": 4663974117, "lat": 35.2360981, "lon": 129.0796779}, {"type": "node", "id": 4663974118, "lat": 35.2362131, "lon": 129.0796913}, {"type": "node", "id": 4663974119, "lat": 35.2362109, "lon": 129.0796108}, {"type": "node", "id": 4663974120, "lat": 35.2364913, "lon": 129.0792956}, {"type": "node", "id": 4663974121, "lat": 35.232638, "lon": 129.0779011}, {"type": "node", "id": 4663974122, "lat": 35.2325263, "lon": 129.0783169}, {"type": "node", "id": 4663974123, "lat": 35.2323806, "lon": 129.0782538}, {"type": "node", "id": 4663974124, "lat": 35.2324781, "lon": 129.0778435}, {"type": "node", "id": 4663974125, "lat": 35.2324481, "lon": 129.0771846}, {"type": "node", "id": 4663974126, "lat": 35.2323945, "lon": 129.0774019}, {"type": "node", "id": 4663974127, "lat": 35.2326968, "lon": 129.0773429}, {"type": "node", "id": 4663974128, "lat": 35.2326157, "lon": 129.0773161}, {"type": "node", "id": 4663974129, "lat": 35.2326311, "lon": 129.077249}, {"type": "node", "id": 4663974130, "lat": 35.2326103, "lon": 129.0773241}, {"type": "node", "id": 4663974131, "lat": 35.2326004, "lon": 129.0773684}, {"type": "node", "id": 4663974132, "lat": 35.2326782, "lon": 129.0773965}, {"type": "node", "id": 4663974133, "lat": 35.2326869, "lon": 129.0773483}, {"type": "node", "id": 4663974134, "lat": 35.2325916, "lon": 129.077245}, {"type": "node", "id": 4663974135, "lat": 35.2325785, "lon": 129.077296}, {"type": "node", "id": 4663974136, "lat": 35.2324383, "lon": 129.0772477}, {"type": "node", "id": 4663974137, "lat": 35.2324525, "lon": 129.077194}, {"type": "node", "id": 4663974138, "lat": 35.2325785, "lon": 129.0774126, "tags": {"amenity": "parking_space"}}, {"type": "node", "id": 4663974139, "lat": 35.2325675, "lon": 129.0774636}, {"type": "node", "id": 4663974140, "lat": 35.2324032, "lon": 129.0774059}, {"type": "node", "id": 4663974141, "lat": 35.2324142, "lon": 129.0773536}, {"type": "node", "id": 4663974142, "lat": 35.2326612, "lon": 129.0774984}, {"type": "node", "id": 4663984297, "lat": 35.2325056, "lon": 129.0776357}, {"type": "node", "id": 4663984298, "lat": 35.2325253, "lon": 129.0777082}, {"type": "node", "id": 4663984299, "lat": 35.2321967, "lon": 129.0775754}, {"type": "node", "id": 4663984300, "lat": 35.232177, "lon": 129.077507}, {"type": "node", "id": 4664079966, "lat": 35.2327718, "lon": 129.083869}, {"type": "node", "id": 4664079967, "lat": 35.2327219, "lon": 129.0840457}, {"type": "node", "id": 4664079968, "lat": 35.2329394, "lon": 129.0841401}, {"type": "node", "id": 4664079969, "lat": 35.2328888, "lon": 129.0843436}, {"type": "node", "id": 4664079970, "lat": 35.2329314, "lon": 129.084364}, {"type": "node", "id": 4664079971, "lat": 35.2330311, "lon": 129.0839765}, {"type": "node", "id": 4664104593, "lat": 35.2332125, "lon": 129.0834788}, {"type": "node", "id": 4664104594, "lat": 35.2332012, "lon": 129.083522}, {"type": "node", "id": 4664104595, "lat": 35.2329485, "lon": 129.083421}, {"type": "node", "id": 4664104596, "lat": 35.2329605, "lon": 129.0833779}, {"type": "node", "id": 4664104597, "lat": 35.2332724, "lon": 129.0833795}, {"type": "node", "id": 4664104598, "lat": 35.2332604, "lon": 129.0834218}, {"type": "node", "id": 4664104599, "lat": 35.2329818, "lon": 129.0833184}, {"type": "node", "id": 4664104600, "lat": 35.2329944, "lon": 129.0832752}, {"type": "node", "id": 4664104601, "lat": 35.2334758, "lon": 129.0830408}, {"type": "node", "id": 4664104602, "lat": 35.2334371, "lon": 129.0830603}, {"type": "node", "id": 4664104603, "lat": 35.2333072, "lon": 129.0835352}, {"type": "node", "id": 4664104604, "lat": 35.2333409, "lon": 129.0835282}, {"type": "node", "id": 4664104605, "lat": 35.2335499, "lon": 129.0830579}, {"type": "node", "id": 4664104606, "lat": 35.2335093, "lon": 129.0830416}, {"type": "node", "id": 4664104607, "lat": 35.2334342, "lon": 129.0833119}, {"type": "node", "id": 4664104608, "lat": 35.2334787, "lon": 129.0833282}, {"type": "node", "id": 4664104609, "lat": 35.2336277, "lon": 129.0830522}, {"type": "node", "id": 4664104610, "lat": 35.2335911, "lon": 129.0830652}, {"type": "node", "id": 4664104611, "lat": 35.233496, "lon": 129.0834243}, {"type": "node", "id": 4664104612, "lat": 35.2335346, "lon": 129.0834121}, {"type": "node", "id": 4664104613, "lat": 35.2336244, "lon": 129.0829732}, {"type": "node", "id": 4664104614, "lat": 35.2337068, "lon": 129.0826614}, {"type": "node", "id": 4664104615, "lat": 35.2337275, "lon": 129.0826687}, {"type": "node", "id": 4664104616, "lat": 35.2336463, "lon": 129.0829814}, {"type": "node", "id": 4664104617, "lat": 35.2336204, "lon": 129.0827632}, {"type": "node", "id": 4664104618, "lat": 35.2335851, "lon": 129.0827477}, {"type": "node", "id": 4664104619, "lat": 35.2335486, "lon": 129.0828926}, {"type": "node", "id": 4664104620, "lat": 35.2335851, "lon": 129.0829089}, {"type": "node", "id": 4664104621, "lat": 35.2335692, "lon": 129.0826549}, {"type": "node", "id": 4664104622, "lat": 35.2335366, "lon": 129.082676}, {"type": "node", "id": 4664104623, "lat": 35.2334874, "lon": 129.082856}, {"type": "node", "id": 4664104624, "lat": 35.2335233, "lon": 129.0828356}, {"type": "node", "id": 4664104625, "lat": 35.2330444, "lon": 129.08243}, {"type": "node", "id": 4664104626, "lat": 35.2329689, "lon": 129.0827118}, {"type": "node", "id": 4664104627, "lat": 35.2330052, "lon": 129.0827266}, {"type": "node", "id": 4664104628, "lat": 35.2330779, "lon": 129.0824458}, {"type": "node", "id": 4664104629, "lat": 35.2329903, "lon": 129.0824023}, {"type": "node", "id": 4664104630, "lat": 35.2329528, "lon": 129.082387}, {"type": "node", "id": 4664104631, "lat": 35.2328857, "lon": 129.082649}, {"type": "node", "id": 4664104632, "lat": 35.2329229, "lon": 129.0826648}, {"type": "node", "id": 4664110949, "lat": 35.2322354, "lon": 129.0830705}, {"type": "node", "id": 4664110950, "lat": 35.2322223, "lon": 129.0831242}, {"type": "node", "id": 4664110951, "lat": 35.2327908, "lon": 129.0833401}, {"type": "node", "id": 4664110952, "lat": 35.2328029, "lon": 129.0832864}, {"type": "node", "id": 4664110953, "lat": 35.2325049, "lon": 129.0830563}, {"type": "node", "id": 4664110954, "lat": 35.2324961, "lon": 129.0830912}, {"type": "node", "id": 4664110955, "lat": 35.2323055, "lon": 129.0830201}, {"type": "node", "id": 4664110956, "lat": 35.2323132, "lon": 129.0829826}, {"type": "node", "id": 4664134387, "lat": 35.2377541, "lon": 129.084516, "tags": {"amenity": "public_bath", "name": "\ubd80\uc0b0\ub808\ud3ec\uce20"}}, {"type": "node", "id": 4664228150, "lat": 35.2377517, "lon": 129.0829545, "tags": {"amenity": "restaurant", "name": "\ud1a0\ub9c8\ud1a0\ub3c4\uc2dc\ub77d \ubd80\uc0b0\ub300\ubd81\ubb38\uc810"}}, {"type": "node", "id": 4665031692, "lat": 35.2355198, "lon": 129.0815854}, {"type": "node", "id": 4665358041, "lat": 35.2364614, "lon": 129.0767116}, {"type": "node", "id": 4665358042, "lat": 35.2364634, "lon": 129.0767351}, {"type": "node", "id": 4665358043, "lat": 35.2363692, "lon": 129.0767437}, {"type": "node", "id": 4665358044, "lat": 35.2363672, "lon": 129.076719}, {"type": "node", "id": 4665358045, "lat": 35.2363727, "lon": 129.0767733}, {"type": "node", "id": 4665358046, "lat": 35.2363742, "lon": 129.0767924}, {"type": "node", "id": 4665358047, "lat": 35.2364785, "lon": 129.076785}, {"type": "node", "id": 4665358048, "lat": 35.2364775, "lon": 129.0767641}, {"type": "node", "id": 4665411849, "lat": 35.2317402, "lon": 129.0803049}, {"type": "node", "id": 4665411850, "lat": 35.2317151, "lon": 129.0803789}, {"type": "node", "id": 4665411851, "lat": 35.2314596, "lon": 129.0802479}, {"type": "node", "id": 4665411852, "lat": 35.231486, "lon": 129.0801771}, {"type": "node", "id": 4665415365, "lat": 35.2322052, "lon": 129.080415}, {"type": "node", "id": 4665415366, "lat": 35.2324637, "lon": 129.0805598}, {"type": "node", "id": 4665415367, "lat": 35.232533, "lon": 129.0805174}, {"type": "node", "id": 4665415368, "lat": 35.2326682, "lon": 129.0805968}, {"type": "node", "id": 4665415369, "lat": 35.2325594, "lon": 129.0806784}, {"type": "node", "id": 4665415370, "lat": 35.2322108, "lon": 129.0804851}, {"type": "node", "id": 4665415371, "lat": 35.2318489, "lon": 129.0802184}, {"type": "node", "id": 4665415372, "lat": 35.2318081, "lon": 129.08026}, {"type": "node", "id": 4665415373, "lat": 35.2320849, "lon": 129.0804087}, {"type": "node", "id": 4665415374, "lat": 35.2321233, "lon": 129.0803686}, {"type": "node", "id": 4665508651, "lat": 35.2318127, "lon": 129.0784813}, {"type": "node", "id": 4665508652, "lat": 35.2317882, "lon": 129.0785791}, {"type": "node", "id": 4665508653, "lat": 35.232114, "lon": 129.0787017}, {"type": "node", "id": 4665508654, "lat": 35.2321385, "lon": 129.0786039}, {"type": "node", "id": 4665508655, "lat": 35.2322587, "lon": 129.0786504}, {"type": "node", "id": 4665508656, "lat": 35.2322344, "lon": 129.0787486}, {"type": "node", "id": 4665508657, "lat": 35.2324007, "lon": 129.0788103}, {"type": "node", "id": 4665508658, "lat": 35.232425, "lon": 129.0787121}, {"type": "node", "id": 4665508659, "lat": 35.2318742, "lon": 129.0781375}, {"type": "node", "id": 4665508660, "lat": 35.2317895, "lon": 129.078452}, {"type": "node", "id": 4665508661, "lat": 35.2317205, "lon": 129.0784242}, {"type": "node", "id": 4665508662, "lat": 35.2318053, "lon": 129.0781096}, {"type": "node", "id": 4665509587, "lat": 35.2321694, "lon": 129.0774924}, {"type": "node", "id": 4665509588, "lat": 35.232196, "lon": 129.0775838}, {"type": "node", "id": 4665510889, "lat": 35.2325314, "lon": 129.0777149}, {"type": "node", "id": 4665510890, "lat": 35.2325073, "lon": 129.0776255}, {"type": "node", "id": 4665525055, "lat": 35.2343319, "lon": 129.0783998}, {"type": "node", "id": 4665525056, "lat": 35.2343024, "lon": 129.0785323}, {"type": "node", "id": 4665525057, "lat": 35.2342586, "lon": 129.07852}, {"type": "node", "id": 4665525058, "lat": 35.2342615, "lon": 129.0787267}, {"type": "node", "id": 4665525059, "lat": 35.2342879, "lon": 129.0785984}, {"type": "node", "id": 4665525060, "lat": 35.2342431, "lon": 129.0785825}, {"type": "node", "id": 4665525061, "lat": 35.2339932, "lon": 129.0782831}, {"type": "node", "id": 4665875173, "lat": 35.233265, "lon": 129.0834314}, {"type": "node", "id": 4665875174, "lat": 35.2332388, "lon": 129.0834224}, {"type": "node", "id": 4665875186, "lat": 35.2331377, "lon": 129.0831206}, {"type": "node", "id": 4665875187, "lat": 35.2331005, "lon": 129.083263}, {"type": "node", "id": 4665875188, "lat": 35.2330552, "lon": 129.0832451}, {"type": "node", "id": 4665875189, "lat": 35.2330393, "lon": 129.0832109}, {"type": "node", "id": 4665875190, "lat": 35.2330699, "lon": 129.0830913}, {"type": "node", "id": 4666567647, "lat": 35.2351708, "lon": 129.0810078}, {"type": "node", "id": 4666567648, "lat": 35.2350222, "lon": 129.0809539}, {"type": "node", "id": 4666567649, "lat": 35.2349126, "lon": 129.0814519}, {"type": "node", "id": 4666567650, "lat": 35.2350205, "lon": 129.0814905}, {"type": "node", "id": 4666590510, "lat": 35.2368342, "lon": 129.0808534}, {"type": "node", "id": 4666607690, "lat": 35.2300756, "lon": 129.0833771}, {"type": "node", "id": 4666607691, "lat": 35.2300713, "lon": 129.0835161}, {"type": "node", "id": 4666613809, "lat": 35.2329179, "lon": 129.0789537}, {"type": "node", "id": 4666613810, "lat": 35.2329055, "lon": 129.0790019}, {"type": "node", "id": 4666613811, "lat": 35.2325028, "lon": 129.078847}, {"type": "node", "id": 4666613812, "lat": 35.2325139, "lon": 129.0788005}, {"type": "node", "id": 4666613813, "lat": 35.232922, "lon": 129.0789482}, {"type": "node", "id": 4666613814, "lat": 35.2329061, "lon": 129.0790079}, {"type": "node", "id": 4666613815, "lat": 35.2324966, "lon": 129.078848}, {"type": "node", "id": 4666613816, "lat": 35.2325097, "lon": 129.0787939}, {"type": "node", "id": 4666613820, "lat": 35.2325875, "lon": 129.0784794}, {"type": "node", "id": 4666613821, "lat": 35.2325649, "lon": 129.0784721}, {"type": "node", "id": 4666613822, "lat": 35.232495, "lon": 129.0787554}, {"type": "node", "id": 4666613823, "lat": 35.2325176, "lon": 129.0787644}, {"type": "node", "id": 4666613824, "lat": 35.2326035, "lon": 129.0784291}, {"type": "node", "id": 4666613825, "lat": 35.2325933, "lon": 129.0784717}, {"type": "node", "id": 4666613826, "lat": 35.2327324, "lon": 129.0785216}, {"type": "node", "id": 4666613827, "lat": 35.2327426, "lon": 129.0784789}, {"type": "node", "id": 4666624597, "lat": 35.2324902, "lon": 129.0806788}, {"type": "node", "id": 4666624598, "lat": 35.2324851, "lon": 129.0806936}, {"type": "node", "id": 4666624599, "lat": 35.2322417, "lon": 129.080568}, {"type": "node", "id": 4666624600, "lat": 35.2322467, "lon": 129.0805533}, {"type": "node", "id": 4673859846, "lat": 35.2344787, "lon": 129.0816566, "tags": {"amenity": "cafe", "name": "\ucee4\ud53c\ube4c\ub9ac\uc9c0"}}, {"type": "node", "id": 4673862349, "lat": 35.2357847, "lon": 129.0813596, "tags": {"amenity": "library"}}, {"type": "node", "id": 4673962524, "lat": 35.2374922, "lon": 129.0855651, "tags": {"amenity": "marketplace", "name": "\uc7a5\uc131\uc2dc\uc7a5"}}, {"type": "node", "id": 4673962530, "lat": 35.23859, "lon": 129.0866087, "tags": {"amenity": "dentist", "name": "\uc7a5\uc804\uce58\uacfc\uc758\uc6d0"}}, {"type": "node", "id": 4673962535, "lat": 35.2384817, "lon": 129.0866002, "tags": {"amenity": "hospital", "name": "\uc218 \ub3d9\ubb3c\ubcd1\uc6d0"}}, {"type": "node", "id": 4673962540, "lat": 35.2383483, "lon": 129.0863378, "tags": {"amenity": "hospital", "name": "\uc774\uc11d\ud76c \ub0b4\uacfc"}}, {"type": "node", "id": 4673962546, "lat": 35.2378722, "lon": 129.0863291, "tags": {"amenity": "hospital", "name": "\ubc31\ubcf4\ud55c\uc758\uc6d0"}}, {"type": "node", "id": 4673962547, "lat": 35.2377912, "lon": 129.0863641, "tags": {"amenity": "hospital", "name": "\uc7a5\uc804\ub3d9\ubb3c\ubcd1\uc6d0"}}, {"type": "node", "id": 4673962553, "lat": 35.237749, "lon": 129.0834263, "tags": {"amenity": "restaurant", "name": "\uce58\ud0a8\ud401 \ubd80\uc0b0\ub300 1\ud638\uc810"}}, {"type": "node", "id": 4673962559, "lat": 35.237909, "lon": 129.0831291, "tags": {"amenity": "bar", "name": "\uc6a9\uad6c\ube44\uc5b4 \ubd80\uc0b0\ub300\uc810"}}, {"type": "node", "id": 4673962564, "lat": 35.2379134, "lon": 129.0833543, "tags": {"amenity": "bar", "name": "\ubd80\uc5b4\ub77c\ub9c8\uc154\ub77c"}}, {"type": "node", "id": 4673972335, "lat": 35.2376692, "lon": 129.0855438, "tags": {"amenity": "restaurant", "name": "\ub77c\ub77c\uad00"}}, {"type": "node", "id": 4673972341, "lat": 35.2370204, "lon": 129.083813, "tags": {"amenity": "restaurant", "name": "\ub300\uc77c\ubc18\uc810"}}, {"type": "node", "id": 4673972342, "lat": 35.2368548, "lon": 129.0836539, "tags": {"amenity": "restaurant", "name": "\ub9cc\uc0ac\uc131"}}, {"type": "node", "id": 4673972343, "lat": 35.2368605, "lon": 129.0835283, "tags": {"amenity": "restaurant", "name": "\uc9c4\uc8fc\uc2dd\ub2f9"}}, {"type": "node", "id": 4673972344, "lat": 35.2368707, "lon": 129.0833991, "tags": {"amenity": "restaurant", "name": "\ub9db\ub098\ub294\ub3c8\uae4c\uc2a4"}}, {"type": "node", "id": 4673972345, "lat": 35.2368822, "lon": 129.083277, "tags": {"amenity": "restaurant", "name": "\ub9db\ucd0c"}}, {"type": "node", "id": 4673972346, "lat": 35.2370152, "lon": 129.0829337, "tags": {"amenity": "cafe", "name": "\uce74\ud398 \ub450"}}, {"type": "node", "id": 4673972355, "lat": 35.2373939, "lon": 129.0829531, "tags": {"amenity": "cafe", "name": "\ub178\uc2a4\ucee4\ud53c \ubd80\uc0b0\ub300\ubd81\ubb38\uc810"}}, {"type": "node", "id": 4673972356, "lat": 35.2374893, "lon": 129.0829602, "tags": {"amenity": "pub", "name": "PUZIMI"}}, {"type": "node", "id": 4673972357, "lat": 35.2376396, "lon": 129.0831283, "tags": {"amenity": "pub", "name": "SOMA Beer"}}, {"type": "node", "id": 4673972362, "lat": 35.2379113, "lon": 129.0826576, "tags": {"amenity": "restaurant", "name": "\ud638\ud638\ud1b5\ub2ed"}}, {"type": "node", "id": 4673972363, "lat": 35.2370368, "lon": 129.0827941, "tags": {"amenity": "restaurant", "name": "My Place"}}, {"type": "node", "id": 4673972364, "lat": 35.2370416, "lon": 129.0826921, "tags": {"amenity": "restaurant", "name": "\ubd80\ub300\ub2ed\ub3c4\ub9ac"}}, {"type": "node", "id": 4673972365, "lat": 35.2370487, "lon": 129.0825522, "tags": {"amenity": "restaurant", "name": "\ubd80\uad11\uc2dd\ub2f9"}}, {"type": "node", "id": 4673992182, "lat": 35.2377564, "lon": 129.0836513, "tags": {"amenity": "bar", "name": "\ud3ec\ucc28\uace8 \ubd80\uc0b0\ub300\uc810"}}, {"type": "node", "id": 4673992183, "lat": 35.2377564, "lon": 129.0837574, "tags": {"amenity": "restaurant", "name": "\ub274\uc22f\ubd88\ud1b5\ub2ed"}}, {"type": "node", "id": 4673992188, "lat": 35.2379371, "lon": 129.0837928, "tags": {"amenity": "restaurant", "name": "\uad50\ucd0c\uce58\ud0a8 \ubd80\uc0b0\ub300\ubd81\ubb38\uc810"}}, {"type": "node", "id": 4673992296, "lat": 35.2377969, "lon": 129.0861482, "tags": {"amenity": "pub", "name": "\ub8e8\uc774\uc2a4\ud38d"}}, {"type": "node", "id": 4673992297, "lat": 35.2369986, "lon": 129.0831273, "tags": {"amenity": "cafe", "name": "\ud6c4\ub974\uce20\ubc14\uc2a4\ucf13"}}, {"type": "node", "id": 4673992298, "lat": 35.2370987, "lon": 129.083108, "tags": {"amenity": "restaurant", "name": "\ubbf8\ub3c4\ub9ac\uc989\uc11d\ub3c8\uae4c\uc2a4"}}, {"type": "node", "id": 4673992299, "lat": 35.2371768, "lon": 129.0830908, "tags": {"amenity": "restaurant", "name": "\ubbf8\uac00 \ubd84\uc2dd"}}, {"type": "node", "id": 4673992300, "lat": 35.2372312, "lon": 129.0830919, "tags": {"amenity": "restaurant", "name": "\ub9db\ub098\ub77c \ubd84\uc2dd"}}, {"type": "node", "id": 4673992301, "lat": 35.2372382, "lon": 129.0829705, "tags": {"amenity": "restaurant", "name": "\uc608\uc804\uce7c\uad6d\uc218"}}, {"type": "node", "id": 4673992302, "lat": 35.2372101, "lon": 129.0829705, "tags": {"amenity": "restaurant", "name": "\uc131\uc9c4\uc2dd\ub2f9"}}, {"type": "node", "id": 4673992303, "lat": 35.2371812, "lon": 129.0829715, "tags": {"amenity": "cafe", "name": "\ucee4\ud53c\ubaac\uc2a4\ud130 \ubd80\uc0b0\ub300\ubd81\ubb38\uc810"}}, {"type": "node", "id": 4673992304, "lat": 35.237132, "lon": 129.0829619, "tags": {"amenity": "restaurant", "name": "\ud560\ub9e4\uc9d1 \ubcf4\ub9ac\ubc25"}}, {"type": "node", "id": 4673992305, "lat": 35.2371066, "lon": 129.082964, "tags": {"amenity": "restaurant", "name": "\uc9c4\uc218\uc131\ucc2c"}}, {"type": "node", "id": 4673992306, "lat": 35.2377656, "lon": 129.0828953, "tags": {"amenity": "cafe", "cuisine": "ice_cream", "name": "\uce74\uba54\ub9d0\ub9ac", "opening_hours": "23:00 \uae4c\uc9c0"}}, {"type": "node", "id": 4673992307, "lat": 35.2369986, "lon": 129.0832487, "tags": {"amenity": "restaurant", "name": "\uc9c0\uc9c0\uace0 \ubd80\uc0b0\ub300\uc810"}}, {"type": "node", "id": 4673992313, "lat": 35.2378928, "lon": 129.0834969, "tags": {"amenity": "restaurant", "name": "\ud55c\uc591\uc81c\uc77c\uc871\ubc1c\ubcf4\uc308"}}, {"type": "node", "id": 4673992322, "lat": 35.2370077, "lon": 129.0839205, "tags": {"amenity": "restaurant", "name": "\ud5c8\uae30\uc2dd\ub2f9"}}, {"type": "node", "id": 4673992323, "lat": 35.2370106, "lon": 129.0840639, "tags": {"amenity": "restaurant", "name": "\ucd08\uc6d0\uc2dd\ub2f9"}}, {"type": "node", "id": 4673992329, "lat": 35.2370149, "lon": 129.0840126, "tags": {"amenity": "restaurant", "name": "\ud560\ub9e4\uc2dd\ub2f9"}}, {"type": "node", "id": 4673992335, "lat": 35.2370164, "lon": 129.0842338, "tags": {"amenity": "restaurant", "name": "\ub3c8\uc6cc\ub9ac \ub3c8\uae4c\uc2a4"}}, {"type": "node", "id": 4673992340, "lat": 35.2370193, "lon": 129.0843187, "tags": {"amenity": "restaurant", "name": "\ucd98\ud558\ucd94\ub3d9"}}, {"type": "node", "id": 4673992346, "lat": 35.2370159, "lon": 129.084557, "tags": {"amenity": "restaurant", "name": "\ubaa8\ub4ec\ucd0c\ub2ed"}}, {"type": "node", "id": 4673992347, "lat": 35.237039, "lon": 129.0846066, "tags": {"amenity": "restaurant", "name": "\uc77c\uac00\uc778"}}, {"type": "node", "id": 4673992353, "lat": 35.237026, "lon": 129.0847428, "tags": {"amenity": "restaurant", "name": "\ud64d\ub9e4 \uc0ac\ucc9c\uc694\ub9ac"}}, {"type": "node", "id": 4673992354, "lat": 35.236848, "lon": 129.0837818, "tags": {"amenity": "cafe", "name": "\uce74\ud398 105"}}, {"type": "node", "id": 4673992360, "lat": 35.2368937, "lon": 129.084609, "tags": {"amenity": "restaurant", "name": "\uac10\ubbf8\uc2dd\ub2f9"}}, {"type": "node", "id": 4673996256, "lat": 35.2375062, "lon": 129.085891, "tags": {"amenity": "hospital", "name": "\ub0b4\uc131\ud55c\uc758\uc6d0"}}, {"type": "node", "id": 4673996262, "lat": 35.2378877, "lon": 129.0866307, "tags": {"amenity": "hospital", "name": "\uc8fc\uc548\uce58\uacfc\uc758\uc6d0"}}, {"type": "node", "id": 4673996269, "lat": 35.2379109, "lon": 129.0869899, "tags": {"amenity": "hospital", "name": "\uc2e0\ud604\uc131 \ub0b4\uacfc\uc758\uc6d0"}}, {"type": "node", "id": 4673996277, "lat": 35.2379311, "lon": 129.0876854, "tags": {"amenity": "dentist", "name": "\ud55c\uacb0\uce58\uacfc\uc758\uc6d0"}}, {"type": "node", "id": 4673996282, "lat": 35.2378111, "lon": 129.0876765, "tags": {"amenity": "hospital", "name": "\ub3d9\uacbd\ud55c\uc758\uc6d0"}}, {"type": "node", "id": 4673996287, "lat": 35.2376969, "lon": 129.0876659, "tags": {"amenity": "hospital", "name": "\uae40\ucca0\uc218 \uc774\ube44\uc778\ud6c4\uacfc"}}, {"type": "node", "id": 4673997593, "lat": 35.2365908, "lon": 129.0865979, "tags": {"amenity": "hospital", "name": "\ucd5c\ub0b4\uacfc\uc758\uc6d0"}}, {"type": "node", "id": 4677763091, "lat": 35.2352383, "lon": 129.0862161}, {"type": "node", "id": 4677763092, "lat": 35.2351734, "lon": 129.0865931}, {"type": "node", "id": 4677763093, "lat": 35.2346284, "lon": 129.0864525}, {"type": "node", "id": 4677763094, "lat": 35.2346932, "lon": 129.0860755}, {"type": "node", "id": 4677763103, "lat": 35.2348754, "lon": 129.0869533}, {"type": "node", "id": 4677763104, "lat": 35.2348508, "lon": 129.0870896}, {"type": "node", "id": 4677763105, "lat": 35.2347713, "lon": 129.0870666}, {"type": "node", "id": 4677763106, "lat": 35.23478, "lon": 129.08701}, {"type": "node", "id": 4677763107, "lat": 35.2347988, "lon": 129.0870029}, {"type": "node", "id": 4677763108, "lat": 35.2348118, "lon": 129.0869374}, {"type": "node", "id": 4677769100, "lat": 35.2300698, "lon": 129.0806341}, {"type": "node", "id": 4677775576, "lat": 35.2294506, "lon": 129.0841994}, {"type": "node", "id": 4677775577, "lat": 35.2293349, "lon": 129.0842259}, {"type": "node", "id": 4677775578, "lat": 35.2293769, "lon": 129.0843763}, {"type": "node", "id": 4677775579, "lat": 35.2294274, "lon": 129.0843524}, {"type": "node", "id": 4677775580, "lat": 35.2294665, "lon": 129.0842365}, {"type": "node", "id": 4690397876, "lat": 35.2280194, "lon": 129.0809126}, {"type": "node", "id": 4690397877, "lat": 35.2281464, "lon": 129.0807785}, {"type": "node", "id": 4690397878, "lat": 35.2281914, "lon": 129.0806846}, {"type": "node", "id": 4690397879, "lat": 35.2283842, "lon": 129.0801871}, {"type": "node", "id": 4690397880, "lat": 35.2283644, "lon": 129.0801133}, {"type": "node", "id": 4690397881, "lat": 35.2282757, "lon": 129.0800516}, {"type": "node", "id": 4690397882, "lat": 35.2279668, "lon": 129.0798371}, {"type": "node", "id": 4690397884, "lat": 35.2277225, "lon": 129.0808308}, {"type": "node", "id": 4690397885, "lat": 35.2276622, "lon": 129.0811004}, {"type": "node", "id": 4690397886, "lat": 35.2277784, "lon": 129.0811299}, {"type": "node", "id": 4690397887, "lat": 35.2278101, "lon": 129.0809824}, {"type": "node", "id": 4690397888, "lat": 35.2278496, "lon": 129.0809193}, {"type": "node", "id": 4690397889, "lat": 35.2278594, "lon": 129.0808737}, {"type": "node", "id": 4700858011, "lat": 35.232023, "lon": 129.0765697}, {"type": "node", "id": 4920032321, "lat": 35.2309889, "lon": 129.0849223, "tags": {"amenity": "cafe", "name:en": "LanCul"}}, {"type": "node", "id": 4939039521, "lat": 35.2307153, "lon": 129.0849066, "tags": {"amenity": "cafe", "name:en": "Language Studio"}}, {"type": "node", "id": 5302476193, "lat": 35.2266825, "lon": 129.077737, "tags": {"amenity": "restaurant", "capacity": "16", "cuisine": "asian;noodles", "delivery": "no", "name": "\uc218\ub9bc\uc2dd\ub2f9(Surim-Sikdang)", "opening_hours": "Mo-Su 11:00-15:00,17:00-20:00", "outdoor_seating": "no", "smoking": "no", "takeaway": "no"}}, {"type": "node", "id": 5368405927, "lat": 35.2355053, "lon": 129.0807244, "tags": {"amenity": "atm", "currency:KRW": "yes", "operator": "NH\ub18d\ud611\uc740\ud589"}}, {"type": "node", "id": 5368405928, "lat": 35.2354246, "lon": 129.0805741, "tags": {"amenity": "atm", "currency:KRW": "yes", "operator": "\ud558\ub098\uc740\ud589"}}, {"type": "node", "id": 5804463113, "lat": 35.2241865, "lon": 129.0854286}, {"type": "node", "id": 5804463114, "lat": 35.2241887, "lon": 129.0853696}, {"type": "node", "id": 5804463115, "lat": 35.2239761, "lon": 129.0852596}, {"type": "node", "id": 5804463116, "lat": 35.2238797, "lon": 129.085383}, {"type": "node", "id": 5804463117, "lat": 35.2240095, "lon": 129.0865059, "tags": {"amenity": "cafe", "brand": "\uc2a4\ud0c0\ubc85\uc2a4", "brand:en": "Starbucks", "brand:wikidata": "Q37158", "cuisine": "coffee_shop", "int_name": "Starbucks", "name": "\uc2a4\ud0c0\ubc85\uc2a4", "name:de": "Starbucks", "name:en": "STARBUCKS", "name:ja": "\u30b9\u30bf\u30fc\u30d0\u30c3\u30af\u30b9", "name:ko": "\uc2a4\ud0c0\ubc85\uc2a4", "name:ru": "\u0421\u0442\u0430\u0440\u0431\u0430\u043a\u0441", "name:zh": "\u661f\u5df4\u514b", "opening_hours": "11:00-23:00", "operator": "(\uc8fc)\uc2a4\ud0c0\ubc85\uc2a4\ucee4\ud53c \ucf54\ub9ac\uc544", "payment:american_express": "yes", "payment:coins": "yes", "payment:diners_club": "yes", "payment:discover_card": "yes", "payment:jcb": "yes", "payment:mastercard": "yes", "payment:notes": "yes", "payment:unionpay": "yes", "payment:visa": "yes", "smoking": "no", "website": "http://www.istarbucks.co.kr/index.do"}}, {"type": "node", "id": 5947597694, "lat": 35.2403364, "lon": 129.081774}, {"type": "node", "id": 5947597695, "lat": 35.2405346, "lon": 129.0813193}, {"type": "node", "id": 6045526009, "lat": 35.2242423, "lon": 129.0853912, "tags": {"amenity": "cafe", "name": "\uaf2c\ub9c8\ub300\ud1b5\ub839"}}, {"type": "node", "id": 6047705013, "lat": 35.2262691, "lon": 129.0856126, "tags": {"amenity": "ice_cream"}}, {"type": "node", "id": 6047705014, "lat": 35.2248987, "lon": 129.085321, "tags": {"amenity": "bar", "name": "\ub9ac\uc5bc\ud38d"}}, {"type": "node", "id": 6047705015, "lat": 35.2247989, "lon": 129.0852819, "tags": {"amenity": "restaurant", "cuisine": "pork", "name": "\uc9c0\ub300\ub8e8\uc18c\uae08\uad6c\uc774"}}, {"type": "node", "id": 6047705016, "lat": 35.2301134, "lon": 129.0858245, "tags": {"amenity": "restaurant", "cuisine": "pork;fish", "name": "\uc131\ubd81\ub3d9\ub3c8\uae4c\uc2a4"}}, {"type": "node", "id": 6080045323, "lat": 35.2302562, "lon": 129.0958941}, {"type": "node", "id": 6080045324, "lat": 35.2303076, "lon": 129.096232}, {"type": "node", "id": 6080045326, "lat": 35.2293103, "lon": 129.0953883}, {"type": "node", "id": 6098880619, "lat": 35.2350876, "lon": 129.0827752}, {"type": "node", "id": 6098880638, "lat": 35.2350848, "lon": 129.0828362}, {"type": "node", "id": 6098880640, "lat": 35.2351285, "lon": 129.0828376}, {"type": "node", "id": 6098880641, "lat": 35.2351327, "lon": 129.0827764}, {"type": "node", "id": 6098880645, "lat": 35.2351673, "lon": 129.0828382}, {"type": "node", "id": 6098880647, "lat": 35.2351701, "lon": 129.0827773}, {"type": "node", "id": 6101899764, "lat": 35.2350871, "lon": 129.0828067}, {"type": "node", "id": 6101899765, "lat": 35.2350862, "lon": 129.0828362}, {"type": "node", "id": 6101899766, "lat": 35.235088, "lon": 129.0827757}, {"type": "node", "id": 6101899767, "lat": 35.2351296, "lon": 129.0828374}, {"type": "node", "id": 6101899768, "lat": 35.2351327, "lon": 129.0827761}, {"type": "node", "id": 6101899769, "lat": 35.2351685, "lon": 129.0828386}, {"type": "node", "id": 6101899770, "lat": 35.2351712, "lon": 129.0827769}, {"type": "node", "id": 6101950639, "lat": 35.2350871, "lon": 129.0828083}, {"type": "node", "id": 6101950640, "lat": 35.2350867, "lon": 129.0828365}, {"type": "node", "id": 6101950641, "lat": 35.2350877, "lon": 129.0827765}, {"type": "node", "id": 6101950642, "lat": 35.2351301, "lon": 129.0828377}, {"type": "node", "id": 6101950643, "lat": 35.2351321, "lon": 129.0827769}, {"type": "node", "id": 6101950644, "lat": 35.2351686, "lon": 129.0828385}, {"type": "node", "id": 6101950645, "lat": 35.2351706, "lon": 129.0827781}, {"type": "node", "id": 6102013223, "lat": 35.2350871, "lon": 129.0828091}, {"type": "node", "id": 6102013224, "lat": 35.2350863, "lon": 129.0828361}, {"type": "node", "id": 6102013225, "lat": 35.235088, "lon": 129.0827777}, {"type": "node", "id": 6102013226, "lat": 35.2351305, "lon": 129.0828381}, {"type": "node", "id": 6102013227, "lat": 35.2351321, "lon": 129.0827781}, {"type": "node", "id": 6102013228, "lat": 35.235169, "lon": 129.0828393}, {"type": "node", "id": 6102013229, "lat": 35.23517, "lon": 129.0827789}, {"type": "node", "id": 6102058576, "lat": 35.2351673, "lon": 129.0828385}, {"type": "node", "id": 6102058577, "lat": 35.2351686, "lon": 129.0827797}, {"type": "node", "id": 6102058578, "lat": 35.2351298, "lon": 129.0828377}, {"type": "node", "id": 6102058579, "lat": 35.2350883, "lon": 129.0827789}, {"type": "node", "id": 6102058580, "lat": 35.2351318, "lon": 129.0827797}, {"type": "node", "id": 6102058581, "lat": 35.2350857, "lon": 129.0828361}, {"type": "node", "id": 6102090034, "lat": 35.2350857, "lon": 129.0828353}, {"type": "node", "id": 6102090035, "lat": 35.2350877, "lon": 129.0827813}, {"type": "node", "id": 6102090036, "lat": 35.2351305, "lon": 129.0828377}, {"type": "node", "id": 6102090037, "lat": 35.2351324, "lon": 129.0827821}, {"type": "node", "id": 6102090038, "lat": 35.2351686, "lon": 129.0828377}, {"type": "node", "id": 6102090039, "lat": 35.2351706, "lon": 129.0827813}, {"type": "node", "id": 6182279691, "lat": 35.2306529, "lon": 129.0877245, "tags": {"amenity": "restaurant", "cuisine": "international", "name:en": "Han's Deli", "opening_hours": "Mo-Su 09:00-18:00"}}, {"type": "node", "id": 6610441700, "lat": 35.2319396, "lon": 129.0893062}, {"type": "node", "id": 6610441702, "lat": 35.2318735, "lon": 129.0893056}, {"type": "node", "id": 6610441703, "lat": 35.2316745, "lon": 129.0892656}, {"type": "node", "id": 6853033432, "lat": 35.2302262, "lon": 129.0917739}, {"type": "node", "id": 6853033433, "lat": 35.2302213, "lon": 129.0918735}, {"type": "node", "id": 6853033434, "lat": 35.2299655, "lon": 129.0919467}, {"type": "node", "id": 6853033435, "lat": 35.2298277, "lon": 129.0920605}, {"type": "node", "id": 6853033436, "lat": 35.2298477, "lon": 129.091904}, {"type": "node", "id": 6853033437, "lat": 35.2299456, "lon": 129.0917617}, {"type": "node", "id": 6853033438, "lat": 35.2299672, "lon": 129.0917657}, {"type": "node", "id": 6853038220, "lat": 35.2395748, "lon": 129.0922098, "tags": {"amenity": "fast_food", "brand": "\ub9e5\ub3c4\ub0a0\ub4dc", "brand:en": "McDonald's", "brand:ko": "\ub9e5\ub3c4\ub0a0\ub4dc", "brand:wikidata": "Q38076", "brand:wikipedia": "ko:\ub9e5\ub3c4\ub0a0\ub4dc", "cuisine": "burger", "name": "\ub9e5\ub3c4\ub0a0\ub4dc", "name:en": "McDonald's", "name:ko": "\ub9e5\ub3c4\ub0a0\ub4dc", "takeaway": "yes"}}, {"type": "node", "id": 6853058212, "lat": 35.2379619, "lon": 129.0904038}, {"type": "node", "id": 6853058213, "lat": 35.2379624, "lon": 129.0905643}, {"type": "node", "id": 6853058214, "lat": 35.2378575, "lon": 129.0905649}, {"type": "node", "id": 6853058215, "lat": 35.237857, "lon": 129.0904337}, {"type": "node", "id": 6853058216, "lat": 35.2378913, "lon": 129.0904042}, {"type": "node", "id": 6853067783, "lat": 35.2376899, "lon": 129.0902102, "tags": {"amenity": "language_school", "language:en": "yes", "name": "MJK"}}, {"type": "node", "id": 6853078877, "lat": 35.2390866, "lon": 129.0921173, "tags": {"amenity": "restaurant", "cuisine": "donut;coffee", "internet_access": "wlan", "name": "\ub358\ud0a8 \ub3c4\ub108\uce20"}}, {"type": "node", "id": 6853096128, "lat": 35.2342525, "lon": 129.0930662}, {"type": "node", "id": 6853096129, "lat": 35.2339526, "lon": 129.0937089}, {"type": "node", "id": 6853096130, "lat": 35.2337572, "lon": 129.094305}, {"type": "node", "id": 6853096131, "lat": 35.2331923, "lon": 129.0941215}, {"type": "node", "id": 6853096132, "lat": 35.2328451, "lon": 129.0941135}, {"type": "node", "id": 6853096133, "lat": 35.23285, "lon": 129.0936994}, {"type": "node", "id": 6853096134, "lat": 35.2328802, "lon": 129.0930986}, {"type": "node", "id": 6853096135, "lat": 35.2334974, "lon": 129.0930232}, {"type": "node", "id": 6853096787, "lat": 35.233776, "lon": 129.0943556}, {"type": "node", "id": 6853096788, "lat": 35.2329029, "lon": 129.0943096}, {"type": "node", "id": 6853096789, "lat": 35.2329608, "lon": 129.0950422}, {"type": "node", "id": 6853096791, "lat": 35.23302, "lon": 129.0958191}, {"type": "node", "id": 6853096792, "lat": 35.2330504, "lon": 129.0958385}, {"type": "node", "id": 6853096793, "lat": 35.2339436, "lon": 129.0959977}, {"type": "node", "id": 6853096794, "lat": 35.2340535, "lon": 129.0957359}, {"type": "node", "id": 7067228361, "lat": 35.2290687, "lon": 129.0776214}, {"type": "node", "id": 7067228362, "lat": 35.2290986, "lon": 129.0784437}, {"type": "node", "id": 7067228364, "lat": 35.2282289, "lon": 129.078533}, {"type": "node", "id": 7067228366, "lat": 35.2281305, "lon": 129.0778065}, {"type": "node", "id": 7067228367, "lat": 35.2284319, "lon": 129.0775648}, {"type": "node", "id": 7067228368, "lat": 35.2319669, "lon": 129.094429}, {"type": "node", "id": 7067228369, "lat": 35.2317129, "lon": 129.0946381}, {"type": "node", "id": 7067228370, "lat": 35.2315486, "lon": 129.0949304}, {"type": "node", "id": 7067228371, "lat": 35.2315202, "lon": 129.095228}, {"type": "node", "id": 7067228372, "lat": 35.2315421, "lon": 129.0956597}, {"type": "node", "id": 7067228373, "lat": 35.231656, "lon": 129.0960297}, {"type": "node", "id": 7067228374, "lat": 35.2317676, "lon": 129.0962549}, {"type": "node", "id": 7067228375, "lat": 35.2319363, "lon": 129.096279}, {"type": "node", "id": 7067228376, "lat": 35.2325057, "lon": 129.096279}, {"type": "node", "id": 7067228377, "lat": 35.2326437, "lon": 129.0961691}, {"type": "node", "id": 7067228378, "lat": 35.2329875, "lon": 129.096153}, {"type": "node", "id": 7067228379, "lat": 35.2328955, "lon": 129.0952226}, {"type": "node", "id": 7067228380, "lat": 35.2327816, "lon": 129.0945228}, {"type": "node", "id": 7067228381, "lat": 35.2320699, "lon": 129.0945523}, {"type": "node", "id": 7067228382, "lat": 35.2420508, "lon": 129.096949}, {"type": "node", "id": 7067228383, "lat": 35.2421519, "lon": 129.0975575}, {"type": "node", "id": 7067228384, "lat": 35.2420623, "lon": 129.0977238}, {"type": "node", "id": 7067242485, "lat": 35.2418832, "lon": 129.0977238}, {"type": "node", "id": 7067242486, "lat": 35.2415538, "lon": 129.0978653}, {"type": "node", "id": 7067242487, "lat": 35.2412851, "lon": 129.0982899}, {"type": "node", "id": 7067242488, "lat": 35.2409672, "lon": 129.0985022}, {"type": "node", "id": 7067242489, "lat": 35.2408343, "lon": 129.0986897}, {"type": "node", "id": 7067242490, "lat": 35.2407187, "lon": 129.098725}, {"type": "node", "id": 7067242491, "lat": 35.240528, "lon": 129.0986224}, {"type": "node", "id": 7067242492, "lat": 35.2402708, "lon": 129.0985977}, {"type": "node", "id": 7067242493, "lat": 35.2401177, "lon": 129.0984845}, {"type": "node", "id": 7067242494, "lat": 35.2398519, "lon": 129.0982899}, {"type": "node", "id": 7067242495, "lat": 35.2397449, "lon": 129.0981165}, {"type": "node", "id": 7067242496, "lat": 35.2398461, "lon": 129.0977981}, {"type": "node", "id": 7067242497, "lat": 35.2400426, "lon": 129.097271}, {"type": "node", "id": 7067242498, "lat": 35.2401784, "lon": 129.0969172}, {"type": "node", "id": 7067242499, "lat": 35.2404558, "lon": 129.0965422}, {"type": "node", "id": 7067242500, "lat": 35.2406176, "lon": 129.0958806}, {"type": "node", "id": 7067242501, "lat": 35.2407158, "lon": 129.0958806}, {"type": "node", "id": 7067242502, "lat": 35.2410597, "lon": 129.0965386}, {"type": "node", "id": 7067242503, "lat": 35.2413082, "lon": 129.096857}, {"type": "node", "id": 7067242504, "lat": 35.241837, "lon": 129.0969136}, {"type": "node", "id": 7067242505, "lat": 35.2418919, "lon": 129.0968712}, {"type": "node", "id": 7067327000, "lat": 35.2278189, "lon": 129.0968096}, {"type": "node", "id": 7067327001, "lat": 35.2274204, "lon": 129.0972974}, {"type": "node", "id": 7067327002, "lat": 35.2272316, "lon": 129.0973371}, {"type": "node", "id": 7067327003, "lat": 35.2271439, "lon": 129.0972624}, {"type": "node", "id": 7067327004, "lat": 35.2268388, "lon": 129.096917}, {"type": "node", "id": 7067327005, "lat": 35.2267378, "lon": 129.0968073}, {"type": "node", "id": 7067327006, "lat": 35.2266253, "lon": 129.0965435}, {"type": "node", "id": 7067327007, "lat": 35.2265223, "lon": 129.0963404}, {"type": "node", "id": 7067327008, "lat": 35.2265223, "lon": 129.0962587}, {"type": "node", "id": 7067327009, "lat": 35.227121, "lon": 129.0958549}, {"type": "node", "id": 7067327010, "lat": 35.227407, "lon": 129.096163}, {"type": "node", "id": 7067327011, "lat": 35.2274967, "lon": 129.0964431}, {"type": "node", "id": 7067327012, "lat": 35.2276416, "lon": 129.0964991}, {"type": "node", "id": 7067327013, "lat": 35.2234377, "lon": 129.09571}, {"type": "node", "id": 7067327014, "lat": 35.2233347, "lon": 129.0957582}, {"type": "node", "id": 7067327015, "lat": 35.222728, "lon": 129.0956081}, {"type": "node", "id": 7067327016, "lat": 35.2224367, "lon": 129.0955116}, {"type": "node", "id": 7067327017, "lat": 35.2227762, "lon": 129.0945034}, {"type": "node", "id": 7067327018, "lat": 35.223131, "lon": 129.0945919}, {"type": "node", "id": 7067327019, "lat": 35.2233588, "lon": 129.0945168}, {"type": "node", "id": 7067327020, "lat": 35.223718, "lon": 129.0946884}, {"type": "node", "id": 7070092446, "lat": 35.2240742, "lon": 129.0918923}, {"type": "node", "id": 7070092447, "lat": 35.2237947, "lon": 129.0930437}, {"type": "node", "id": 7070092448, "lat": 35.22293, "lon": 129.09271},