{"version": 0.6, "generator": "Overpass API 0.7.62.11 87bfad18", "osm3s": {"timestamp_osm_base": "2026-05-28T08:51:48Z", "copyright": "The data included in this document is from www.openstreetmap.org. The data is made available under ODbL."}, "elements": [{"type": "node", "id": 368743276, "lat": 35.23903, "lon": 129.09078, "tags": {"amenity": "dentist", "name": "\uc774\ub8e8\ubbf8\uce58\uacfc", "name:en": "Irumi Dental Clinic", "name:ja": "\u30a4\u30eb\u30df\u6b6f\u79d1", "name:ko": "\uc774\ub8e8\ubbf8\uce58\uacfc", "name:ko-Latn": "Irumichigwa"}}, {"type": "node", "id": 368743547, "lat": 35.23077, "lon": 129.0868, "tags": {"amenity": "dentist", "name": "\uc62c\ub9ac\ube0c\uce58\uacfc", "name:en": "Olive Dental Clinic", "name:ko": "\uc62c\ub9ac\ube0c\uce58\uacfc", "name:ko-Latn": "Ollibeuchigwa"}}, {"type": "node", "id": 368744016, "lat": 35.22614, "lon": 129.09214, "tags": {"amenity": "dentist", "name": "\ud478\ub978\uc0ac\uacfc\uce58\uacfc\uc758\uc6d0", "name:en": "Pureun Apple Dental Clinic", "name:ko": "\ud478\ub978\uc0ac\uacfc\uce58\uacfc\uc758\uc6d0", "name:ko-Latn": "Pureunsagwachigwauiwon"}}, {"type": "node", "id": 368744810, "lat": 35.2374119, "lon": 129.0919125, "tags": {"amenity": "dentist", "name": "\ucc28\uce58\uacfc\uc758\uc6d0", "name:en": "Cha Dental Clinic", "name:ko": "\ucc28\uce58\uacfc\uc758\uc6d0", "name:ko-Latn": "Chachigwauiwon"}}, {"type": "node", "id": 368747320, "lat": 35.23818, "lon": 129.09216, "tags": {"amenity": "dentist", "name": "\uad7f\ubaa8\ub2dd\uce58\uacfc", "name:en": "Good Morning Dental Clinic", "name:ja": "\u30b0\u30c3\u30c9\u30e2\u30fc\u30cb\u30f3\u30b0\u6b6f\u79d1", "name:ko": "\uad7f\ubaa8\ub2dd\uce58\uacfc", "name:ko-Latn": "Gutmoningchigwa"}}, {"type": "node", "id": 368747716, "lat": 35.2391, "lon": 129.09083, "tags": {"amenity": "dentist", "name": "\uc78e\uc0c8\uce58\uacfc", "name:en": "Ipsae Dental Clinic", "name:ko": "\uc78e\uc0c8\uce58\uacfc", "name:ko-Latn": "Ipsaechigwa"}}, {"type": "node", "id": 368747730, "lat": 35.22592, "lon": 129.09222, "tags": {"amenity": "dentist", "name": "\ud589\ubcf5\ud55c\uce58\uacfc\uc758\uc6d0", "name:en": "Haengbokhan Dental Clinic", "name:ko": "\ud589\ubcf5\ud55c\uce58\uacfc\uc758\uc6d0", "name:ko-Latn": "Haengbokhanchigwauiwon"}}, {"type": "node", "id": 4673962530, "lat": 35.23859, "lon": 129.0866087, "tags": {"amenity": "dentist", "name": "\uc7a5\uc804\uce58\uacfc\uc758\uc6d0"}}, {"type": "node", "id": 4673996277, "lat": 35.2379311, "lon": 129.0876854, "tags": {"amenity": "dentist", "name": "\ud55c\uacb0\uce58\uacfc\uc758\uc6d0"}}]}